[{"name":"Donggongon","cou_name_en":"Malaysia","coordinates":{"lon":116.10146,"lat":5.90702},"population":71585},{"name":"Seremban","cou_name_en":"Malaysia","coordinates":{"lon":101.9381,"lat":2.7297},"population":372917},{"name":"Ampang","cou_name_en":"Malaysia","coordinates":{"lon":101.76667,"lat":3.15},"population":126285},{"name":"Nampula","cou_name_en":"Mozambique","coordinates":{"lon":39.2666,"lat":-15.11646},"population":770379},{"name":"Milange","cou_name_en":"Mozambique","coordinates":{"lon":35.77,"lat":-16.09861},"population":35146},{"name":"Lere","cou_name_en":"Nigeria","coordinates":{"lon":8.57286,"lat":10.38584},"population":93290},{"name":"Lagos","cou_name_en":"Nigeria","coordinates":{"lon":3.39467,"lat":6.45407},"population":15388000},{"name":"Ilorin","cou_name_en":"Nigeria","coordinates":{"lon":4.54214,"lat":8.49664},"population":1080000},{"name":"Ikere-Ekiti","cou_name_en":"Nigeria","coordinates":{"lon":5.23041,"lat":7.49748},"population":103054},{"name":"Fiditi","cou_name_en":"Nigeria","coordinates":{"lon":3.91665,"lat":7.71393},"population":71461},{"name":"Argungu","cou_name_en":"Nigeria","coordinates":{"lon":4.52514,"lat":12.74482},"population":45584},{"name":"Ciudad Sandino","cou_name_en":"Nicaragua","coordinates":{"lon":-86.34417,"lat":12.15889},"population":50000},{"name":"Oss","cou_name_en":"Netherlands","coordinates":{"lon":5.51806,"lat":51.765},"population":76430},{"name":"Maastricht","cou_name_en":"Netherlands","coordinates":{"lon":5.68889,"lat":50.84833},"population":122378},{"name":"Breda","cou_name_en":"Netherlands","coordinates":{"lon":4.77596,"lat":51.58656},"population":167673},{"name":"Amstelveen","cou_name_en":"Netherlands","coordinates":{"lon":4.86389,"lat":52.30083},"population":79639},{"name":"Trondheim","cou_name_en":"Norway","coordinates":{"lon":10.39506,"lat":63.43049},"population":212660},{"name":"\u015ea\u1e29am","cou_name_en":"Oman","coordinates":{"lon":56.88861,"lat":24.17222},"population":140000},{"name":"Bahl\u0101\u2019","cou_name_en":"Oman","coordinates":{"lon":57.3047,"lat":22.97886},"population":54338},{"name":"San Miguelito","cou_name_en":"Panama","coordinates":{"lon":-79.47068,"lat":9.05032},"population":321501},{"name":"Col\u00f3n","cou_name_en":"Panama","coordinates":{"lon":-79.90011,"lat":9.35451},"population":76643},{"name":"Colomba","cou_name_en":"Guatemala","coordinates":{"lon":-91.73167,"lat":14.7073},"population":47544},{"name":"Coatepeque","cou_name_en":"Guatemala","coordinates":{"lon":-91.86426,"lat":14.70413},"population":105415},{"name":"Yuen Long San Hui","cou_name_en":"Hong Kong, China","coordinates":{"lon":114.03333,"lat":22.43333},"population":200000},{"name":"Pat Heung","cou_name_en":"Hong Kong, China","coordinates":{"lon":114.09226,"lat":22.4461},"population":40357},{"name":"San Pedro Sula","cou_name_en":"Honduras","coordinates":{"lon":-88.025,"lat":15.50417},"population":801259},{"name":"Ciudad Choluteca","cou_name_en":"Honduras","coordinates":{"lon":-87.19083,"lat":13.30028},"population":75872},{"name":"Slavonski Brod","cou_name_en":"Croatia","coordinates":{"lon":18.01556,"lat":45.16028},"population":45005},{"name":"Salg\u00f3tarj\u00e1n","cou_name_en":"Hungary","coordinates":{"lon":19.80303,"lat":48.09872},"population":34627},{"name":"P\u00e1pa","cou_name_en":"Hungary","coordinates":{"lon":17.4674,"lat":47.33004},"population":32990},{"name":"Mosonmagyar\u00f3v\u00e1r","cou_name_en":"Hungary","coordinates":{"lon":17.26994,"lat":47.86789},"population":30359},{"name":"\u00c9rd","cou_name_en":"Hungary","coordinates":{"lon":18.91361,"lat":47.39489},"population":62408},{"name":"Dunakeszi","cou_name_en":"Hungary","coordinates":{"lon":19.13864,"lat":47.63641},"population":30246},{"name":"Angyalf\u00f6ld","cou_name_en":"Hungary","coordinates":{"lon":19.07973,"lat":47.54765},"population":62006},{"name":"Budapest XI. ker\u00fclet","cou_name_en":"Hungary","coordinates":{"lon":19.03605,"lat":47.47603},"population":139049},{"name":"Langsa","cou_name_en":"Indonesia","coordinates":{"lon":97.9683,"lat":4.4683},"population":185971},{"name":"Sungai Penuh","cou_name_en":"Indonesia","coordinates":{"lon":101.3913,"lat":-2.0561},"population":97770},{"name":"Pangkalanbuun","cou_name_en":"Indonesia","coordinates":{"lon":111.6259,"lat":-2.6832},"population":38057},{"name":"Curug","cou_name_en":"Indonesia","coordinates":{"lon":106.55639,"lat":-6.26583},"population":191406},{"name":"Ciputat","cou_name_en":"Indonesia","coordinates":{"lon":106.69556,"lat":-6.2375},"population":207858},{"name":"Buaran","cou_name_en":"Indonesia","coordinates":{"lon":109.55,"lat":-7.05},"population":38770},{"name":"Yavn\u00e9","cou_name_en":"Israel","coordinates":{"lon":34.73983,"lat":31.87808},"population":47585},{"name":"Umm el Fa\u1e25m","cou_name_en":"Israel","coordinates":{"lon":35.15349,"lat":32.51725},"population":56109},{"name":"Sakhn\u012bn","cou_name_en":"Israel","coordinates":{"lon":35.29707,"lat":32.86422},"population":31702},{"name":"Qiryat Motsqin","cou_name_en":"Israel","coordinates":{"lon":35.0776,"lat":32.83706},"population":43303},{"name":"Karmi\u2019el","cou_name_en":"Israel","coordinates":{"lon":35.30501,"lat":32.91708},"population":46252},{"name":"Vellore","cou_name_en":"India","coordinates":{"lon":79.13255,"lat":12.9184},"population":484690},{"name":"Unjha","cou_name_en":"India","coordinates":{"lon":72.39101,"lat":23.80366},"population":54620},{"name":"Udg\u012br","cou_name_en":"India","coordinates":{"lon":77.11756,"lat":18.39258},"population":101064},{"name":"Tiruchengode","cou_name_en":"India","coordinates":{"lon":77.89444,"lat":11.38016},"population":87123},{"name":"Shivpuri","cou_name_en":"India","coordinates":{"lon":77.66223,"lat":25.42378},"population":164215},{"name":"S\u0101rangpur","cou_name_en":"India","coordinates":{"lon":76.47306,"lat":23.56651},"population":35827},{"name":"Sah\u0101ranpur","cou_name_en":"India","coordinates":{"lon":77.54522,"lat":29.9679},"population":484873},{"name":"Remuna","cou_name_en":"India","coordinates":{"lon":86.87156,"lat":21.52798},"population":30319},{"name":"R\u0101mnagar","cou_name_en":"India","coordinates":{"lon":79.1283,"lat":29.3925},"population":51244},{"name":"R\u0101ich\u016br","cou_name_en":"India","coordinates":{"lon":77.35567,"lat":16.20546},"population":225962},{"name":"Part\u016br","cou_name_en":"India","coordinates":{"lon":76.21541,"lat":19.59925},"population":30991},{"name":"Parl\u0101kimidi","cou_name_en":"India","coordinates":{"lon":84.08836,"lat":18.78113},"population":45379},{"name":"Pall\u0101varam","cou_name_en":"India","coordinates":{"lon":80.15025,"lat":12.96796},"population":157145},{"name":"Neem ka Thana","cou_name_en":"India","coordinates":{"lon":75.78652,"lat":27.73976},"population":32690},{"name":"Niwai","cou_name_en":"India","coordinates":{"lon":75.91836,"lat":26.36073},"population":35114},{"name":"N\u0101thdw\u0101ra","cou_name_en":"India","coordinates":{"lon":73.82392,"lat":24.93805},"population":39426},{"name":"Nandikotk\u016br","cou_name_en":"India","coordinates":{"lon":78.26569,"lat":15.85668},"population":45343},{"name":"Mysore","cou_name_en":"India","coordinates":{"lon":76.63925,"lat":12.29791},"population":868313},{"name":"Monghyr","cou_name_en":"India","coordinates":{"lon":86.47455,"lat":25.37459},"population":203163},{"name":"Morena","cou_name_en":"India","coordinates":{"lon":77.99534,"lat":26.49892},"population":152004},{"name":"Mayiladuthurai","cou_name_en":"India","coordinates":{"lon":79.655,"lat":11.10354},"population":86660},{"name":"Mahmud\u0101b\u0101d","cou_name_en":"India","coordinates":{"lon":81.11775,"lat":27.29191},"population":45921},{"name":"Kotma","cou_name_en":"India","coordinates":{"lon":81.97904,"lat":23.20383},"population":31756},{"name":"Konnagar","cou_name_en":"India","coordinates":{"lon":88.34446,"lat":22.70508},"population":76082},{"name":"Kichha","cou_name_en":"India","coordinates":{"lon":79.52009,"lat":28.91154},"population":34904},{"name":"Kayalpattinam","cou_name_en":"India","coordinates":{"lon":78.11992,"lat":8.57143},"population":36175},{"name":"Kar\u012bmganj","cou_name_en":"India","coordinates":{"lon":92.35543,"lat":24.86919},"population":55290},{"name":"K\u0101raik\u0101l","cou_name_en":"India","coordinates":{"lon":79.83333,"lat":10.91667},"population":79653},{"name":"Hingangh\u0101t","cou_name_en":"India","coordinates":{"lon":78.83978,"lat":20.54875},"population":97568},{"name":"Hail\u0101k\u0101ndi","cou_name_en":"India","coordinates":{"lon":92.56097,"lat":24.68394},"population":31031},{"name":"Dindigul","cou_name_en":"India","coordinates":{"lon":77.98036,"lat":10.36896},"population":292512},{"name":"Dh\u0101ka","cou_name_en":"India","coordinates":{"lon":85.16698,"lat":26.67479},"population":36111},{"name":"Dandeli","cou_name_en":"India","coordinates":{"lon":74.61667,"lat":15.26667},"population":52295},{"name":"Coimbatore","cou_name_en":"India","coordinates":{"lon":76.96612,"lat":11.00555},"population":2136916},{"name":"Chikmagal\u016br","cou_name_en":"India","coordinates":{"lon":75.774,"lat":13.32231},"population":121484},{"name":"Chand\u012bgarh","cou_name_en":"India","coordinates":{"lon":76.7884,"lat":30.73629},"population":960787},{"name":"Ch\u0101mpa","cou_name_en":"India","coordinates":{"lon":82.64234,"lat":22.03532},"population":41252},{"name":"Buld\u0101na","cou_name_en":"India","coordinates":{"lon":76.18457,"lat":20.52933},"population":66991},{"name":"Bhuj","cou_name_en":"India","coordinates":{"lon":69.66928,"lat":23.25397},"population":133459},{"name":"Bhong\u012br","cou_name_en":"India","coordinates":{"lon":78.88563,"lat":17.51544},"population":50094},{"name":"Bar Bigha","cou_name_en":"India","coordinates":{"lon":85.7332,"lat":25.21855},"population":41758},{"name":"Baraut","cou_name_en":"India","coordinates":{"lon":77.26334,"lat":29.10199},"population":93544},{"name":"Attur","cou_name_en":"India","coordinates":{"lon":78.60143,"lat":11.59414},"population":58702},{"name":"Amritsar","cou_name_en":"India","coordinates":{"lon":74.87534,"lat":31.62234},"population":1092450},{"name":"Ambur","cou_name_en":"India","coordinates":{"lon":78.71644,"lat":12.79163},"population":109873},{"name":"Ambasamudram","cou_name_en":"India","coordinates":{"lon":77.4519,"lat":8.71068},"population":32020},{"name":"Aland","cou_name_en":"India","coordinates":{"lon":76.56854,"lat":17.56425},"population":39064},{"name":"Akola","cou_name_en":"India","coordinates":{"lon":76.9981,"lat":20.70957},"population":428857},{"name":"Aroor","cou_name_en":"India","coordinates":{"lon":76.30498,"lat":9.8694},"population":39214},{"name":"Umm Qa\u015fr","cou_name_en":"Iraq","coordinates":{"lon":47.91951,"lat":30.0362},"population":107620},{"name":"Balad","cou_name_en":"Iraq","coordinates":{"lon":44.14574,"lat":34.01485},"population":42088},{"name":"Al Hind\u012byah","cou_name_en":"Iraq","coordinates":{"lon":44.22765,"lat":32.54671},"population":57490},{"name":"N\u016br\u0101b\u0101d","cou_name_en":"Iran, Islamic Rep. of","coordinates":{"lon":47.9725,"lat":34.0734},"population":73528},{"name":"Qazvin","cou_name_en":"Iran, Islamic Rep. of","coordinates":{"lon":50.0041,"lat":36.26877},"population":333635},{"name":"N\u016br\u0101b\u0101d","cou_name_en":"Iran, Islamic Rep. of","coordinates":{"lon":51.52174,"lat":30.11405},"population":64041},{"name":"Nah\u0101vand","cou_name_en":"Iran, Islamic Rep. of","coordinates":{"lon":48.37446,"lat":34.19088},"population":76250},{"name":"Mar\u012bv\u0101n","cou_name_en":"Iran, Islamic Rep. of","coordinates":{"lon":46.18298,"lat":35.51829},"population":91664},{"name":"Ch\u0101l\u016bs","cou_name_en":"Iran, Islamic Rep. of","coordinates":{"lon":51.4204,"lat":36.655},"population":69638},{"name":"Behbah\u0101n","cou_name_en":"Iran, Islamic Rep. of","coordinates":{"lon":50.2417,"lat":30.5959},"population":79327},{"name":"Ar\u0101k","cou_name_en":"Iran, Islamic Rep. of","coordinates":{"lon":49.69809,"lat":34.09493},"population":503647},{"name":"Khemisset","cou_name_en":"Morocco","coordinates":{"lon":-6.06627,"lat":33.82404},"population":143640},{"name":"Oadar Temsia","cou_name_en":"Morocco","coordinates":{"lon":-9.41044,"lat":30.36531},"population":30526},{"name":"Ungheni","cou_name_en":"Moldova, Republic of","coordinates":{"lon":27.80047,"lat":47.21079},"population":34422},{"name":"Ambositra","cou_name_en":"Madagascar","coordinates":{"lon":47.24344,"lat":-20.53034},"population":43504},{"name":"Prilep","cou_name_en":"Macedonia, The former Yugoslav Rep. of","coordinates":{"lon":21.55504,"lat":41.34514},"population":73814},{"name":"Dawei","cou_name_en":"Myanmar","coordinates":{"lon":98.19151,"lat":14.0823},"population":136783},{"name":"Paungde","cou_name_en":"Myanmar","coordinates":{"lon":95.50591,"lat":18.49167},"population":36971},{"name":"Mandalay","cou_name_en":"Myanmar","coordinates":{"lon":96.08359,"lat":21.97473},"population":1208099},{"name":"Macau","cou_name_en":"Macau, China","coordinates":{"lon":113.54611,"lat":22.20056},"population":649335},{"name":"Saipan","cou_name_en":"Northern Mariana Islands","coordinates":{"lon":145.7545,"lat":15.21233},"population":48220},{"name":"Mzuzu","cou_name_en":"Malawi","coordinates":{"lon":34.02071,"lat":-11.46556},"population":249564},{"name":"Valladolid","cou_name_en":"Mexico","coordinates":{"lon":-88.19936,"lat":20.68812},"population":48973},{"name":"San Miguel Topilejo","cou_name_en":"Mexico","coordinates":{"lon":-99.14193,"lat":19.20264},"population":34603},{"name":"Tepeji del R\u00edo de Ocampo","cou_name_en":"Mexico","coordinates":{"lon":-99.34379,"lat":19.90481},"population":34151},{"name":"Ciudad R\u00edo Bravo","cou_name_en":"Mexico","coordinates":{"lon":-98.09414,"lat":25.98729},"population":95647},{"name":"Ciudad de Huajuapan de Le\u00f3n","cou_name_en":"Mexico","coordinates":{"lon":-97.77956,"lat":17.80787},"population":53043},{"name":"Atlixco","cou_name_en":"Mexico","coordinates":{"lon":-98.43613,"lat":18.90815},"population":86690},{"name":"Amecameca","cou_name_en":"Mexico","coordinates":{"lon":-98.76649,"lat":19.12384},"population":31687},{"name":"Acayucan","cou_name_en":"Mexico","coordinates":{"lon":-94.91386,"lat":17.94979},"population":50934},{"name":"Tepic","cou_name_en":"Mexico","coordinates":{"lon":-104.89569,"lat":21.50951},"population":332863},{"name":"Tala","cou_name_en":"Mexico","coordinates":{"lon":-103.70092,"lat":20.6536},"population":35396},{"name":"Catanzaro","cou_name_en":"Italy","coordinates":{"lon":16.60086,"lat":38.88247},"population":78970},{"name":"Potenza","cou_name_en":"Italy","coordinates":{"lon":15.80794,"lat":40.64175},"population":56433},{"name":"Portici","cou_name_en":"Italy","coordinates":{"lon":14.33716,"lat":40.81563},"population":53801},{"name":"Ponticelli","cou_name_en":"Italy","coordinates":{"lon":14.33038,"lat":40.8542},"population":52284},{"name":"Olbia","cou_name_en":"Italy","coordinates":{"lon":9.49802,"lat":40.92337},"population":60345},{"name":"Nocera Inferiore","cou_name_en":"Italy","coordinates":{"lon":14.64542,"lat":40.7454},"population":45608},{"name":"Montesilvano Marina","cou_name_en":"Italy","coordinates":{"lon":14.14507,"lat":42.5114},"population":45991},{"name":"Moncalieri","cou_name_en":"Italy","coordinates":{"lon":7.68236,"lat":44.9994},"population":56134},{"name":"Modugno","cou_name_en":"Italy","coordinates":{"lon":16.78342,"lat":41.08433},"population":36384},{"name":"Limbiate","cou_name_en":"Italy","coordinates":{"lon":9.12509,"lat":45.59951},"population":32062},{"name":"L'Aquila","cou_name_en":"Italy","coordinates":{"lon":13.39954,"lat":42.35055},"population":33691},{"name":"Ciampino","cou_name_en":"Italy","coordinates":{"lon":12.60158,"lat":41.80064},"population":38277},{"name":"Bollate","cou_name_en":"Italy","coordinates":{"lon":9.12054,"lat":45.54647},"population":35235},{"name":"Avellino","cou_name_en":"Italy","coordinates":{"lon":14.79103,"lat":40.91494},"population":48104},{"name":"Nishi-Tokyo-shi","cou_name_en":"Japan","coordinates":{"lon":139.5383,"lat":35.72526},"population":195164},{"name":"P\u00e1tzcuaro","cou_name_en":"Mexico","coordinates":{"lon":-101.60887,"lat":19.51594},"population":55298},{"name":"Nogales","cou_name_en":"Mexico","coordinates":{"lon":-110.94217,"lat":31.30862},"population":212533},{"name":"Ensenada","cou_name_en":"Mexico","coordinates":{"lon":-116.60071,"lat":31.87149},"population":279765},{"name":"Ameca","cou_name_en":"Mexico","coordinates":{"lon":-104.04508,"lat":20.54629},"population":36156},{"name":"Ry\u016b\u014d","cou_name_en":"Japan","coordinates":{"lon":138.5,"lat":35.65},"population":43180},{"name":"Kure","cou_name_en":"Japan","coordinates":{"lon":132.56658,"lat":34.23222},"population":196624},{"name":"Kurashiki","cou_name_en":"Japan","coordinates":{"lon":133.76667,"lat":34.58333},"population":483576},{"name":"Kochi","cou_name_en":"Japan","coordinates":{"lon":133.53333,"lat":33.55},"population":332059},{"name":"Kasugai","cou_name_en":"Japan","coordinates":{"lon":136.97229,"lat":35.24762},"population":298589},{"name":"Kashihara-shi","cou_name_en":"Japan","coordinates":{"lon":135.7929,"lat":34.50896},"population":124521},{"name":"Kaminokawa","cou_name_en":"Japan","coordinates":{"lon":139.91667,"lat":36.43333},"population":31243},{"name":"Hiroshima","cou_name_en":"Japan","coordinates":{"lon":132.45,"lat":34.4},"population":1199391},{"name":"Hashimoto","cou_name_en":"Japan","coordinates":{"lon":135.61667,"lat":34.31667},"population":61063},{"name":"Hamanoichi","cou_name_en":"Japan","coordinates":{"lon":130.73333,"lat":31.71667},"population":39475},{"name":"Dait\u014d","cou_name_en":"Japan","coordinates":{"lon":135.62033,"lat":34.71378},"population":119329},{"name":"Beppu","cou_name_en":"Japan","coordinates":{"lon":131.49751,"lat":33.27945},"population":122643},{"name":"Miura","cou_name_en":"Japan","coordinates":{"lon":139.61917,"lat":35.14},"population":51483},{"name":"Hanamaki","cou_name_en":"Japan","coordinates":{"lon":141.11667,"lat":39.38333},"population":94691},{"name":"Fukushima","cou_name_en":"Japan","coordinates":{"lon":140.46667,"lat":37.75},"population":294237},{"name":"Mutsu","cou_name_en":"Japan","coordinates":{"lon":141.21694,"lat":41.28944},"population":56244},{"name":"Kushiro","cou_name_en":"Japan","coordinates":{"lon":144.37472,"lat":42.975},"population":167875},{"name":"Ebetsu","cou_name_en":"Japan","coordinates":{"lon":141.55056,"lat":43.10806},"population":133953},{"name":"Neyagawa","cou_name_en":"Japan","coordinates":{"lon":135.62759,"lat":34.76615},"population":238549},{"name":"Saitama","cou_name_en":"Japan","coordinates":{"lon":139.65657,"lat":35.90807},"population":1324854},{"name":"Yomitan","cou_name_en":"Japan","coordinates":{"lon":127.74503,"lat":26.40167},"population":40517},{"name":"Narok","cou_name_en":"Kenya","coordinates":{"lon":35.87111,"lat":-1.08083},"population":65430},{"name":"Kitale","cou_name_en":"Kenya","coordinates":{"lon":35.00622,"lat":1.01572},"population":162174},{"name":"Phum\u012d V\u00e9al Sr\u00ea","cou_name_en":"Cambodia","coordinates":{"lon":104.77828,"lat":10.98081},"population":44270},{"name":"Sunan","cou_name_en":"Korea, Dem. People's Rep. of","coordinates":{"lon":125.69312,"lat":39.20323},"population":36671},{"name":"Ranam","cou_name_en":"Korea, Dem. People's Rep. of","coordinates":{"lon":129.68444,"lat":41.71361},"population":34055},{"name":"Naju","cou_name_en":"Korea, Republic of","coordinates":{"lon":126.7175,"lat":35.0292},"population":42459},{"name":"Munsan","cou_name_en":"Korea, Republic of","coordinates":{"lon":126.785,"lat":37.85944},"population":43208},{"name":"Guri-si","cou_name_en":"Korea, Republic of","coordinates":{"lon":127.1394,"lat":37.5986},"population":195236},{"name":"Altay","cou_name_en":"Kazakhstan","coordinates":{"lon":84.25416,"lat":49.73626},"population":44929},{"name":"Kyzylorda","cou_name_en":"Kazakhstan","coordinates":{"lon":65.50917,"lat":44.85278},"population":354800},{"name":"Pavlodar","cou_name_en":"Kazakhstan","coordinates":{"lon":76.96667,"lat":52.28333},"population":329002},{"name":"Matale","cou_name_en":"Sri Lanka","coordinates":{"lon":80.6217,"lat":7.4698},"population":36462},{"name":"Kolonnawa","cou_name_en":"Sri Lanka","coordinates":{"lon":79.8848,"lat":6.9329},"population":64887},{"name":"Misratah","cou_name_en":"Libyan Arab Jamahiriya","coordinates":{"lon":15.09254,"lat":32.37535},"population":355657},{"name":"Norwich","cou_name_en":"United Kingdom","coordinates":{"lon":1.29834,"lat":52.62783},"population":143135},{"name":"Royal Leamington Spa","cou_name_en":"United Kingdom","coordinates":{"lon":-1.52,"lat":52.2852},"population":95172},{"name":"Hatfield","cou_name_en":"United Kingdom","coordinates":{"lon":-0.22419,"lat":51.76338},"population":41677},{"name":"Farnham","cou_name_en":"United Kingdom","coordinates":{"lon":-0.80054,"lat":51.21444},"population":36971},{"name":"Cricklewood","cou_name_en":"United Kingdom","coordinates":{"lon":-0.21549,"lat":51.5567},"population":65000},{"name":"Bridgend","cou_name_en":"United Kingdom","coordinates":{"lon":-3.57722,"lat":51.50583},"population":49597},{"name":"Billericay","cou_name_en":"United Kingdom","coordinates":{"lon":0.41963,"lat":51.62867},"population":36338},{"name":"Archway","cou_name_en":"United Kingdom","coordinates":{"lon":-0.13415,"lat":51.56733},"population":215667},{"name":"Cayenne","cou_name_en":"French Guiana","coordinates":{"lon":-52.33333,"lat":4.93333},"population":61550},{"name":"Hohoe","cou_name_en":"Ghana","coordinates":{"lon":0.47362,"lat":7.15181},"population":92076},{"name":"New Achimota","cou_name_en":"Ghana","coordinates":{"lon":-0.25807,"lat":5.62657},"population":37116},{"name":"Argyro\u00fapoli","cou_name_en":"Greece","coordinates":{"lon":23.75035,"lat":37.90594},"population":34097},{"name":"Camb\u00e9","cou_name_en":"Brazil","coordinates":{"lon":-51.27833,"lat":-23.27583},"population":91080},{"name":"Caieiras","cou_name_en":"Brazil","coordinates":{"lon":-46.74056,"lat":-23.36417},"population":87188},{"name":"Bragan\u00e7a Paulista","cou_name_en":"Brazil","coordinates":{"lon":-46.54418,"lat":-22.9527},"population":125096},{"name":"Boa Esperan\u00e7a","cou_name_en":"Brazil","coordinates":{"lon":-45.56583,"lat":-21.09},"population":33840},{"name":"Boa Vista","cou_name_en":"Brazil","coordinates":{"lon":-60.67333,"lat":2.81972},"population":419652},{"name":"Jardim Paulista","cou_name_en":"Brazil","coordinates":{"lon":-46.66439,"lat":-23.56675},"population":83667},{"name":"Baranovichi","cou_name_en":"Belarus","coordinates":{"lon":26.00774,"lat":53.13253},"population":179000},{"name":"Fredericton","cou_name_en":"Canada","coordinates":{"lon":-66.66558,"lat":45.94541},"population":63116},{"name":"Guelph","cou_name_en":"Canada","coordinates":{"lon":-80.25599,"lat":43.54594},"population":115760},{"name":"Malvern","cou_name_en":"Canada","coordinates":{"lon":-79.22344,"lat":43.80938},"population":43794},{"name":"Saint-J\u00e9r\u00f4me","cou_name_en":"Canada","coordinates":{"lon":-74.00365,"lat":45.78036},"population":54948},{"name":"Sarnia","cou_name_en":"Canada","coordinates":{"lon":-82.40407,"lat":42.97866},"population":72125},{"name":"St. Catharines","cou_name_en":"Canada","coordinates":{"lon":-79.24267,"lat":43.17126},"population":133113},{"name":"White Rock","cou_name_en":"Canada","coordinates":{"lon":-122.79507,"lat":49.02049},"population":66450},{"name":"Rimouski","cou_name_en":"Canada","coordinates":{"lon":-68.52396,"lat":48.44879},"population":42240},{"name":"Okanagan","cou_name_en":"Canada","coordinates":{"lon":-119.34997,"lat":50.36386},"population":297601},{"name":"Waterfront Communities-The Island","cou_name_en":"Canada","coordinates":{"lon":-79.3772,"lat":43.63388},"population":65913},{"name":"Willowdale East","cou_name_en":"Canada","coordinates":{"lon":-79.40148,"lat":43.7706},"population":50434},{"name":"Nioki","cou_name_en":"Congo, Democratic Republic of the","coordinates":{"lon":17.69001,"lat":-2.72037},"population":62153},{"name":"Boma","cou_name_en":"Congo, Democratic Republic of the","coordinates":{"lon":13.05364,"lat":-5.85098},"population":297009},{"name":"Bandundu Province","cou_name_en":"Congo, Democratic Republic of the","coordinates":{"lon":17.38063,"lat":-3.31687},"population":202904},{"name":"Kouango","cou_name_en":"Central African Republic","coordinates":{"lon":19.96186,"lat":4.99337},"population":36575},{"name":"B\u00e9goua","cou_name_en":"Central African Republic","coordinates":{"lon":18.53475,"lat":4.45437},"population":264067},{"name":"Fribourg","cou_name_en":"Switzerland","coordinates":{"lon":7.15128,"lat":46.80237},"population":32827},{"name":"Emmen","cou_name_en":"Switzerland","coordinates":{"lon":8.27331,"lat":47.07819},"population":30926},{"name":"Z\u00fcrich (Kreis 11)","cou_name_en":"Switzerland","coordinates":{"lon":8.52166,"lat":47.42326},"population":54260},{"name":"Dendermonde","cou_name_en":"Belgium","coordinates":{"lon":4.10106,"lat":51.02869},"population":45673},{"name":"Ouagadougou","cou_name_en":"Burkina Faso","coordinates":{"lon":-1.53388,"lat":12.36566},"population":2415266},{"name":"Petrich","cou_name_en":"Bulgaria","coordinates":{"lon":23.20702,"lat":41.39846},"population":30722},{"name":"Jidd \u1e28af\u015f","cou_name_en":"Bahrain","coordinates":{"lon":50.54778,"lat":26.21861},"population":31735},{"name":"Rumonge","cou_name_en":"Burundi","coordinates":{"lon":29.4386,"lat":-3.9736},"population":55599},{"name":"Ouidah","cou_name_en":"Benin","coordinates":{"lon":2.08506,"lat":6.36307},"population":47616},{"name":"Natitingou","cou_name_en":"Benin","coordinates":{"lon":1.37962,"lat":10.30416},"population":53284},{"name":"Santa Cruz de la Sierra","cou_name_en":"Bolivia","coordinates":{"lon":-63.18117,"lat":-17.78629},"population":1831434},{"name":"Goiana","cou_name_en":"Brazil","coordinates":{"lon":-35.0025,"lat":-7.56056},"population":43980},{"name":"Currais Novos","cou_name_en":"Brazil","coordinates":{"lon":-36.51778,"lat":-6.26083},"population":35560},{"name":"Balsas","cou_name_en":"Brazil","coordinates":{"lon":-46.03556,"lat":-7.5325},"population":68056},{"name":"Vi\u00e7osa","cou_name_en":"Brazil","coordinates":{"lon":-42.88194,"lat":-20.75389},"population":68680},{"name":"Tiet\u00ea","cou_name_en":"Brazil","coordinates":{"lon":-47.71472,"lat":-23.10194},"population":32061},{"name":"S\u00e3o Luiz Gonzaga","cou_name_en":"Brazil","coordinates":{"lon":-54.96083,"lat":-28.40833},"population":31798},{"name":"Po\u00e7os de Caldas","cou_name_en":"Brazil","coordinates":{"lon":-46.56139,"lat":-21.78778},"population":168641},{"name":"Parana\u00edba","cou_name_en":"Brazil","coordinates":{"lon":-51.19083,"lat":-19.67722},"population":32217},{"name":"Louveira","cou_name_en":"Brazil","coordinates":{"lon":-46.95056,"lat":-23.08639},"population":31093},{"name":"Jo\u00e3o Monlevade","cou_name_en":"Brazil","coordinates":{"lon":-43.17361,"lat":-19.81},"population":72762},{"name":"Itapira","cou_name_en":"Brazil","coordinates":{"lon":-46.82167,"lat":-22.43611},"population":61607},{"name":"Itagua\u00ed","cou_name_en":"Brazil","coordinates":{"lon":-43.77528,"lat":-22.85222},"population":100752},{"name":"Franco da Rocha","cou_name_en":"Brazil","coordinates":{"lon":-46.72694,"lat":-23.32167},"population":108858},{"name":"Duque de Caxias","cou_name_en":"Brazil","coordinates":{"lon":-43.31167,"lat":-22.78556},"population":818329},{"name":"Dom Pedrito","cou_name_en":"Brazil","coordinates":{"lon":-54.67306,"lat":-30.98278},"population":36911},{"name":"Cosm\u00f3polis","cou_name_en":"Brazil","coordinates":{"lon":-47.19611,"lat":-22.64583},"population":47772},{"name":"Auburn","cou_name_en":"Australia","coordinates":{"lon":151.03333,"lat":-33.85},"population":37245},{"name":"Trebinje","cou_name_en":"Bosnia and Herzegovina","coordinates":{"lon":18.34362,"lat":42.71197},"population":33178},{"name":"Mymensingh","cou_name_en":"Bangladesh","coordinates":{"lon":90.40646,"lat":24.75636},"population":225126},{"name":"Bera","cou_name_en":"Bangladesh","coordinates":{"lon":89.63262,"lat":24.07821},"population":39604},{"name":"Bhola","cou_name_en":"Bangladesh","coordinates":{"lon":90.64403,"lat":22.68759},"population":99079},{"name":"Lommel","cou_name_en":"Belgium","coordinates":{"lon":5.31349,"lat":51.23074},"population":31993},{"name":"Bani Yas City","cou_name_en":"United Arab Emirates","coordinates":{"lon":54.62944,"lat":24.30978},"population":80498},{"name":"Al Shamkhah City","cou_name_en":"United Arab Emirates","coordinates":{"lon":54.70779,"lat":24.39268},"population":61710},{"name":"Kandah\u0101r","cou_name_en":"Afghanistan","coordinates":{"lon":65.71013,"lat":31.61332},"population":523300},{"name":"Tirana","cou_name_en":"Albania","coordinates":{"lon":19.81889,"lat":41.3275},"population":418495},{"name":"Lubango","cou_name_en":"Angola","coordinates":{"lon":13.4925,"lat":-14.91717},"population":600751},{"name":"San Lorenzo","cou_name_en":"Argentina","coordinates":{"lon":-58.76685,"lat":-28.13442},"population":47626},{"name":"Caucete","cou_name_en":"Argentina","coordinates":{"lon":-68.28216,"lat":-31.6515},"population":33609},{"name":"Castelli","cou_name_en":"Argentina","coordinates":{"lon":-60.61947,"lat":-25.94679},"population":36588},{"name":"Saint Albans","cou_name_en":"Australia","coordinates":{"lon":144.8,"lat":-37.73333},"population":35091},{"name":"Gold Coast","cou_name_en":"Australia","coordinates":{"lon":153.43088,"lat":-28.00029},"population":640778},{"name":"Wollongong","cou_name_en":"Australia","coordinates":{"lon":150.89345,"lat":-34.424},"population":280153},{"name":"\u015eark\u00eekaraa\u011fa\u00e7","cou_name_en":"Turkey","coordinates":{"lon":31.36639,"lat":38.07944},"population":32771},{"name":"Do\u011fubayaz\u0131t","cou_name_en":"Turkey","coordinates":{"lon":44.08417,"lat":39.54694},"population":70171},{"name":"Dinar","cou_name_en":"Turkey","coordinates":{"lon":30.16557,"lat":38.065},"population":35359},{"name":"Ak\u015fehir","cou_name_en":"Turkey","coordinates":{"lon":31.41639,"lat":38.3575},"population":64446},{"name":"Safranbolu","cou_name_en":"Turkey","coordinates":{"lon":32.69417,"lat":41.25083},"population":35242},{"name":"Ke\u015fan","cou_name_en":"Turkey","coordinates":{"lon":26.63266,"lat":40.85525},"population":44644},{"name":"Yongkang","cou_name_en":"Taiwan, China","coordinates":{"lon":120.25556,"lat":23.02444},"population":233730},{"name":"Keelung","cou_name_en":"Taiwan, China","coordinates":{"lon":121.74094,"lat":25.13089},"population":397515},{"name":"Njombe","cou_name_en":"Tanzania, United Republic of","coordinates":{"lon":34.77167,"lat":-9.34917},"population":46724},{"name":"Morogoro","cou_name_en":"Tanzania, United Republic of","coordinates":{"lon":37.66122,"lat":-6.82102},"population":471409},{"name":"Iringa","cou_name_en":"Tanzania, United Republic of","coordinates":{"lon":35.7,"lat":-7.76667},"population":202490},{"name":"Babati","cou_name_en":"Tanzania, United Republic of","coordinates":{"lon":35.75,"lat":-4.21667},"population":67445},{"name":"Zhovti Vody","cou_name_en":"Ukraine","coordinates":{"lon":33.49743,"lat":48.34518},"population":42052},{"name":"Vasylkiv","cou_name_en":"Ukraine","coordinates":{"lon":30.31346,"lat":50.18693},"population":37068},{"name":"Pokrov","cou_name_en":"Ukraine","coordinates":{"lon":34.11488,"lat":47.65361},"population":37493},{"name":"Podilsk","cou_name_en":"Ukraine","coordinates":{"lon":29.53074,"lat":47.74988},"population":39220},{"name":"Kerch","cou_name_en":"Ukraine","coordinates":{"lon":36.47542,"lat":45.35675},"population":148932},{"name":"Antratsyt","cou_name_en":"Ukraine","coordinates":{"lon":39.09128,"lat":48.11503},"population":52150},{"name":"Okhtyrka","cou_name_en":"Ukraine","coordinates":{"lon":34.89879,"lat":50.31036},"population":47216},{"name":"Soroti","cou_name_en":"Uganda","coordinates":{"lon":33.61113,"lat":1.71464},"population":56400},{"name":"Gulu","cou_name_en":"Uganda","coordinates":{"lon":32.29899,"lat":2.77457},"population":146858},{"name":"Florence","cou_name_en":"United States","coordinates":{"lon":-87.67725,"lat":34.79981},"population":40026},{"name":"Jonesboro","cou_name_en":"United States","coordinates":{"lon":-90.70428,"lat":35.8423},"population":73907},{"name":"Gainesville","cou_name_en":"United States","coordinates":{"lon":-82.32483,"lat":29.65163},"population":141085},{"name":"Lake Worth","cou_name_en":"United States","coordinates":{"lon":-80.07231,"lat":26.61708},"population":37498},{"name":"Melbourne","cou_name_en":"United States","coordinates":{"lon":-80.60811,"lat":28.08363},"population":84678},{"name":"Sandy Springs","cou_name_en":"United States","coordinates":{"lon":-84.37854,"lat":33.92427},"population":105330},{"name":"Ni\u0161","cou_name_en":"Serbia","coordinates":{"lon":21.90333,"lat":43.32472},"population":250000},{"name":"Tver","cou_name_en":"Russian Federation","coordinates":{"lon":35.90057,"lat":56.85836},"population":420065},{"name":"Tekstil\u2019shchiki","cou_name_en":"Russian Federation","coordinates":{"lon":37.74271,"lat":55.70033},"population":100000},{"name":"Stavropol\u2019","cou_name_en":"Russian Federation","coordinates":{"lon":41.9734,"lat":45.0428},"population":433931},{"name":"Sochi","cou_name_en":"Russian Federation","coordinates":{"lon":39.72569,"lat":43.59917},"population":327608},{"name":"Prokhladnyy","cou_name_en":"Russian Federation","coordinates":{"lon":44.0297,"lat":43.75741},"population":60800},{"name":"Ryazanskiy","cou_name_en":"Russian Federation","coordinates":{"lon":37.76667,"lat":55.73333},"population":101000},{"name":"Petrozavodsk","cou_name_en":"Russian Federation","coordinates":{"lon":34.34691,"lat":61.78491},"population":279190},{"name":"Novokuz\u2019minki","cou_name_en":"Russian Federation","coordinates":{"lon":37.78333,"lat":55.71667},"population":50000},{"name":"Nizhniy Novgorod","cou_name_en":"Russian Federation","coordinates":{"lon":44.00205,"lat":56.32867},"population":1259013},{"name":"Moscow","cou_name_en":"Russian Federation","coordinates":{"lon":37.61556,"lat":55.75222},"population":10381222},{"name":"Marks","cou_name_en":"Russian Federation","coordinates":{"lon":46.74861,"lat":51.71111},"population":32929},{"name":"Kursk","cou_name_en":"Russian Federation","coordinates":{"lon":36.18735,"lat":51.73733},"population":448733},{"name":"Klintsy","cou_name_en":"Russian Federation","coordinates":{"lon":32.23905,"lat":52.76033},"population":66336},{"name":"Kislovodsk","cou_name_en":"Russian Federation","coordinates":{"lon":42.72083,"lat":43.91333},"population":132771},{"name":"Kanevskaya","cou_name_en":"Russian Federation","coordinates":{"lon":38.9599,"lat":46.0799},"population":45334},{"name":"Kachkanar","cou_name_en":"Russian Federation","coordinates":{"lon":59.4839,"lat":58.7002},"population":43983},{"name":"Ivanovskoye","cou_name_en":"Russian Federation","coordinates":{"lon":37.83333,"lat":55.76667},"population":128000},{"name":"Dolgoprudnyy","cou_name_en":"Russian Federation","coordinates":{"lon":37.50183,"lat":55.94958},"population":68259},{"name":"Dmitrov","cou_name_en":"Russian Federation","coordinates":{"lon":37.52041,"lat":56.34485},"population":61607},{"name":"Tavda","cou_name_en":"Russian Federation","coordinates":{"lon":65.27258,"lat":58.04254},"population":39480},{"name":"Dalnegorsk","cou_name_en":"Russian Federation","coordinates":{"lon":135.6209,"lat":44.55745},"population":38424},{"name":"Gitarama","cou_name_en":"Rwanda","coordinates":{"lon":29.75667,"lat":-2.07444},"population":87613},{"name":"Bugarama","cou_name_en":"Rwanda","coordinates":{"lon":29.0077,"lat":-2.6924},"population":31086},{"name":"Jizan","cou_name_en":"Saudi Arabia","coordinates":{"lon":42.55111,"lat":16.88917},"population":105198},{"name":"Ab\u016b \u2018Ar\u012bsh","cou_name_en":"Saudi Arabia","coordinates":{"lon":42.83251,"lat":16.96887},"population":49171},{"name":"Omdurman","cou_name_en":"Sudan, The Republic of","coordinates":{"lon":32.47773,"lat":15.64453},"population":1200000},{"name":"An Nuh\u016bd","cou_name_en":"Sudan, The Republic of","coordinates":{"lon":28.43333,"lat":12.7},"population":108008},{"name":"Khartoum","cou_name_en":"Sudan, The Republic of","coordinates":{"lon":32.53241,"lat":15.55177},"population":1974647},{"name":"Gerona","cou_name_en":"Philippines","coordinates":{"lon":120.5978,"lat":15.6065},"population":40914},{"name":"Dumaguete","cou_name_en":"Philippines","coordinates":{"lon":123.30261,"lat":9.30722},"population":113541},{"name":"Binalbagan","cou_name_en":"Philippines","coordinates":{"lon":122.8581,"lat":10.1948},"population":38587},{"name":"Bayugan","cou_name_en":"Philippines","coordinates":{"lon":125.7675,"lat":8.75611},"population":40561},{"name":"Angono","cou_name_en":"Philippines","coordinates":{"lon":121.1536,"lat":14.5266},"population":87199},{"name":"Umarkot","cou_name_en":"Pakistan","coordinates":{"lon":69.74184,"lat":25.36329},"population":42074},{"name":"Saddiqabad","cou_name_en":"Pakistan","coordinates":{"lon":70.12652,"lat":28.3091},"population":189876},{"name":"Gujranwala","cou_name_en":"Pakistan","coordinates":{"lon":74.18705,"lat":32.15567},"population":1384471},{"name":"Chiniot","cou_name_en":"Pakistan","coordinates":{"lon":72.97836,"lat":31.72091},"population":201781},{"name":"Chakwal","cou_name_en":"Pakistan","coordinates":{"lon":72.85394,"lat":32.93286},"population":101200},{"name":"Bhimber","cou_name_en":"Pakistan","coordinates":{"lon":74.07846,"lat":32.97465},"population":342900},{"name":"\u015awidnik","cou_name_en":"Poland","coordinates":{"lon":22.69621,"lat":51.21898},"population":40050},{"name":"Bayt \u1e28\u0101n\u016bn","cou_name_en":"West Bank and Gaza Strip","coordinates":{"lon":34.53579,"lat":31.5353},"population":37392},{"name":"Figueira da Foz","cou_name_en":"Portugal","coordinates":{"lon":-8.86179,"lat":40.15085},"population":46600},{"name":"Aveiro","cou_name_en":"Portugal","coordinates":{"lon":-8.64554,"lat":40.64427},"population":54162},{"name":"Capiat\u00e1","cou_name_en":"Paraguay","coordinates":{"lon":-57.44545,"lat":-25.3552},"population":198553},{"name":"T\u00e2rgovi\u015fte","cou_name_en":"Romania","coordinates":{"lon":25.4567,"lat":44.92543},"population":88435},{"name":"Re\u015fi\u0163a","cou_name_en":"Romania","coordinates":{"lon":21.88917,"lat":45.30083},"population":81228},{"name":"Hargeysa","cou_name_en":"Somalia","coordinates":{"lon":44.065,"lat":9.56},"population":477876},{"name":"Rumbek","cou_name_en":"South Sudan, The Republic of","coordinates":{"lon":29.67742,"lat":6.80619},"population":32083},{"name":"Mejicanos","cou_name_en":"El Salvador","coordinates":{"lon":-89.188,"lat":13.72397},"population":160317},{"name":"Biltine","cou_name_en":"Chad","coordinates":{"lon":20.92603,"lat":14.52727},"population":33540},{"name":"Chumphon","cou_name_en":"Thailand","coordinates":{"lon":99.17971,"lat":10.4957},"population":55835},{"name":"Ban Pong","cou_name_en":"Thailand","coordinates":{"lon":99.87739,"lat":13.81629},"population":57559},{"name":"Satun","cou_name_en":"Thailand","coordinates":{"lon":100.06676,"lat":6.62314},"population":34544},{"name":"Sakon Nakhon","cou_name_en":"Thailand","coordinates":{"lon":104.14725,"lat":17.16116},"population":76237},{"name":"Phrae","cou_name_en":"Thailand","coordinates":{"lon":100.14103,"lat":18.14589},"population":38538},{"name":"Khlong Luang","cou_name_en":"Thailand","coordinates":{"lon":100.64578,"lat":14.06467},"population":118551},{"name":"Bang Bua Thong","cou_name_en":"Thailand","coordinates":{"lon":100.42403,"lat":13.91783},"population":41567},{"name":"Amnat Charoen","cou_name_en":"Thailand","coordinates":{"lon":104.62883,"lat":15.85851},"population":34769},{"name":"Kerki","cou_name_en":"Turkmenistan","coordinates":{"lon":65.21058,"lat":37.83573},"population":33242},{"name":"Bayramaly","cou_name_en":"Turkmenistan","coordinates":{"lon":62.16715,"lat":37.61852},"population":75797},{"name":"Baton Rouge","cou_name_en":"United States","coordinates":{"lon":-91.18747,"lat":30.44332},"population":228590},{"name":"Gaithersburg","cou_name_en":"United States","coordinates":{"lon":-77.20137,"lat":39.14344},"population":67456},{"name":"Kansas City","cou_name_en":"United States","coordinates":{"lon":-94.57857,"lat":39.09973},"population":475378},{"name":"Springfield","cou_name_en":"United States","coordinates":{"lon":-93.29824,"lat":37.21533},"population":166810},{"name":"Olive Branch","cou_name_en":"United States","coordinates":{"lon":-89.82953,"lat":34.96176},"population":36010},{"name":"Tupelo","cou_name_en":"United States","coordinates":{"lon":-88.70464,"lat":34.25807},"population":35680},{"name":"Jacksonville","cou_name_en":"United States","coordinates":{"lon":-77.43024,"lat":34.75405},"population":67357},{"name":"Columbia","cou_name_en":"United States","coordinates":{"lon":-87.03528,"lat":35.61507},"population":36800},{"name":"Baytown","cou_name_en":"United States","coordinates":{"lon":-94.97743,"lat":29.7355},"population":76335},{"name":"Cedar Hill","cou_name_en":"United States","coordinates":{"lon":-96.95612,"lat":32.58847},"population":48507},{"name":"Conroe","cou_name_en":"United States","coordinates":{"lon":-95.45605,"lat":30.31188},"population":68602},{"name":"Cypress","cou_name_en":"United States","coordinates":{"lon":-95.69717,"lat":29.96911},"population":46025},{"name":"Deer Park","cou_name_en":"United States","coordinates":{"lon":-95.12382,"lat":29.70523},"population":33806},{"name":"Edinburg","cou_name_en":"United States","coordinates":{"lon":-98.16334,"lat":26.30174},"population":84497},{"name":"Sherman","cou_name_en":"United States","coordinates":{"lon":-96.60888,"lat":33.63566},"population":40667},{"name":"Texas City","cou_name_en":"United States","coordinates":{"lon":-94.9027,"lat":29.38385},"population":47618},{"name":"Danville","cou_name_en":"United States","coordinates":{"lon":-79.39502,"lat":36.58597},"population":42082},{"name":"Linton Hall","cou_name_en":"United States","coordinates":{"lon":-77.57499,"lat":38.75984},"population":35725},{"name":"Hartford","cou_name_en":"United States","coordinates":{"lon":-72.68509,"lat":41.76371},"population":121054},{"name":"San Fernando","cou_name_en":"Peru","coordinates":{"lon":-74.53774,"lat":-8.39818},"population":67844},{"name":"Ualog","cou_name_en":"Philippines","coordinates":{"lon":123.3933,"lat":10.57396},"population":60548},{"name":"Magugpo Poblacion","cou_name_en":"Philippines","coordinates":{"lon":125.8046,"lat":7.4475},"population":233254},{"name":"San Pascual","cou_name_en":"Philippines","coordinates":{"lon":121.022,"lat":13.81045},"population":39395},{"name":"San Mateo","cou_name_en":"Philippines","coordinates":{"lon":121.1236,"lat":14.6982},"population":134327},{"name":"Roxas City","cou_name_en":"Philippines","coordinates":{"lon":122.75111,"lat":11.58528},"population":102688},{"name":"Pila","cou_name_en":"Philippines","coordinates":{"lon":121.3648,"lat":14.2325},"population":34383},{"name":"Legaspi","cou_name_en":"Philippines","coordinates":{"lon":123.74073,"lat":13.14125},"population":179481},{"name":"Jeffersonville","cou_name_en":"United States","coordinates":{"lon":-85.73718,"lat":38.27757},"population":46960},{"name":"Overland Park","cou_name_en":"United States","coordinates":{"lon":-94.67079,"lat":38.98223},"population":186515},{"name":"Greenfield","cou_name_en":"United States","coordinates":{"lon":-88.01259,"lat":42.9614},"population":37349},{"name":"Racine","cou_name_en":"United States","coordinates":{"lon":-87.78285,"lat":42.72613},"population":77742},{"name":"Sun City","cou_name_en":"United States","coordinates":{"lon":-112.27182,"lat":33.59754},"population":37499},{"name":"Chula Vista","cou_name_en":"United States","coordinates":{"lon":-117.0842,"lat":32.64005},"population":265757},{"name":"Corona","cou_name_en":"United States","coordinates":{"lon":-117.56644,"lat":33.87529},"population":164226},{"name":"Hayward","cou_name_en":"United States","coordinates":{"lon":-122.0808,"lat":37.66882},"population":158289},{"name":"Perris","cou_name_en":"United States","coordinates":{"lon":-117.22865,"lat":33.78252},"population":74971},{"name":"Pomona","cou_name_en":"United States","coordinates":{"lon":-117.75228,"lat":34.05529},"population":153266},{"name":"Rancho Cordova","cou_name_en":"United States","coordinates":{"lon":-121.30273,"lat":38.58907},"population":71017},{"name":"Rancho Palos Verdes","cou_name_en":"United States","coordinates":{"lon":-118.38702,"lat":33.74446},"population":42732},{"name":"Stanton","cou_name_en":"United States","coordinates":{"lon":-117.99312,"lat":33.80252},"population":38872},{"name":"Temple City","cou_name_en":"United States","coordinates":{"lon":-118.05785,"lat":34.10723},"population":36365},{"name":"Vacaville","cou_name_en":"United States","coordinates":{"lon":-121.98774,"lat":38.35658},"population":96803},{"name":"Walnut","cou_name_en":"United States","coordinates":{"lon":-117.86534,"lat":34.02029},"population":30237},{"name":"West Hollywood","cou_name_en":"United States","coordinates":{"lon":-118.36174,"lat":34.09001},"population":36222},{"name":"Yuba City","cou_name_en":"United States","coordinates":{"lon":-121.61691,"lat":39.14045},"population":66941},{"name":"Westminster","cou_name_en":"United States","coordinates":{"lon":-105.0372,"lat":39.83665},"population":116317},{"name":"Orem","cou_name_en":"United States","coordinates":{"lon":-111.69465,"lat":40.2969},"population":94457},{"name":"Springville","cou_name_en":"United States","coordinates":{"lon":-111.61075,"lat":40.16523},"population":32286},{"name":"South Hill","cou_name_en":"United States","coordinates":{"lon":-122.27012,"lat":47.14121},"population":52431},{"name":"Hilo","cou_name_en":"United States","coordinates":{"lon":-155.09073,"lat":19.72991},"population":43263},{"name":"Sunset Park","cou_name_en":"United States","coordinates":{"lon":-74.01241,"lat":40.64548},"population":126000},{"name":"Maldonado","cou_name_en":"Uruguay","coordinates":{"lon":-54.95,"lat":-34.9},"population":55478},{"name":"Bekobod","cou_name_en":"Uzbekistan","coordinates":{"lon":69.26972,"lat":40.22083},"population":96900},{"name":"Tumeremo","cou_name_en":"Venezuela, Bolivarian Rep. of","coordinates":{"lon":-61.50497,"lat":7.29861},"population":37614},{"name":"Tucupido","cou_name_en":"Venezuela, Bolivarian Rep. of","coordinates":{"lon":-65.77153,"lat":9.27304},"population":42633},{"name":"Socop\u00f3","cou_name_en":"Venezuela, Bolivarian Rep. of","coordinates":{"lon":-70.82198,"lat":8.23062},"population":72352},{"name":"San Mateo","cou_name_en":"Venezuela, Bolivarian Rep. of","coordinates":{"lon":-67.42365,"lat":10.21302},"population":50401},{"name":"Edgewater","cou_name_en":"United States","coordinates":{"lon":-87.66395,"lat":41.98337},"population":54873},{"name":"Elgin","cou_name_en":"United States","coordinates":{"lon":-88.28119,"lat":42.03725},"population":112111},{"name":"Moline","cou_name_en":"United States","coordinates":{"lon":-90.51513,"lat":41.5067},"population":42681},{"name":"Plainfield","cou_name_en":"United States","coordinates":{"lon":-88.20395,"lat":41.62697},"population":42527},{"name":"Wheaton","cou_name_en":"United States","coordinates":{"lon":-88.10701,"lat":41.86614},"population":53715},{"name":"West Lafayette","cou_name_en":"United States","coordinates":{"lon":-86.90807,"lat":40.42587},"population":45550},{"name":"Cambridge","cou_name_en":"United States","coordinates":{"lon":-71.10561,"lat":42.3751},"population":110402},{"name":"Worcester","cou_name_en":"United States","coordinates":{"lon":-71.80229,"lat":42.26259},"population":206518},{"name":"Eagan","cou_name_en":"United States","coordinates":{"lon":-93.16689,"lat":44.80413},"population":66286},{"name":"Kearney","cou_name_en":"United States","coordinates":{"lon":-99.08148,"lat":40.69946},"population":33021},{"name":"Jersey City","cou_name_en":"United States","coordinates":{"lon":-74.07764,"lat":40.72816},"population":264290},{"name":"Willingboro","cou_name_en":"United States","coordinates":{"lon":-74.86905,"lat":40.02789},"population":31668},{"name":"Bushwick","cou_name_en":"United States","coordinates":{"lon":-73.91875,"lat":40.69427},"population":112620},{"name":"Queens","cou_name_en":"United States","coordinates":{"lon":-73.83652,"lat":40.68149},"population":2272771},{"name":"Hilliard","cou_name_en":"United States","coordinates":{"lon":-83.15825,"lat":40.0334},"population":33649},{"name":"G\u00fciria","cou_name_en":"Venezuela, Bolivarian Rep. of","coordinates":{"lon":-62.29841,"lat":10.57721},"population":40000},{"name":"Cocorote","cou_name_en":"Venezuela, Bolivarian Rep. of","coordinates":{"lon":-68.78298,"lat":10.31954},"population":52803},{"name":"Caracas","cou_name_en":"Venezuela, Bolivarian Rep. of","coordinates":{"lon":-66.87919,"lat":10.48801},"population":3000000},{"name":"Caja Seca","cou_name_en":"Venezuela, Bolivarian Rep. of","coordinates":{"lon":-71.06741,"lat":9.14151},"population":34165},{"name":"T\u00e2n An","cou_name_en":"Viet Nam","coordinates":{"lon":106.41366,"lat":10.53589},"population":215250},{"name":"S\u01a1n T\u00e2y","cou_name_en":"Viet Nam","coordinates":{"lon":105.50686,"lat":21.14053},"population":76956},{"name":"Ph\u00fa Kh\u01b0\u01a1ng","cou_name_en":"Viet Nam","coordinates":{"lon":106.13333,"lat":11.28333},"population":47966},{"name":"Bi\u00ean H\u00f2a","cou_name_en":"Viet Nam","coordinates":{"lon":106.82432,"lat":10.94469},"population":830829},{"name":"Roodepoort","cou_name_en":"South Africa","coordinates":{"lon":27.8725,"lat":-26.1625},"population":326416},{"name":"Sasolburg","cou_name_en":"South Africa","coordinates":{"lon":27.81695,"lat":-26.81358},"population":77016},{"name":"Durban","cou_name_en":"South Africa","coordinates":{"lon":31.0292,"lat":-29.8579},"population":3120282},{"name":"Kansanshi","cou_name_en":"Zambia","coordinates":{"lon":26.42727,"lat":-12.09514},"population":40705},{"name":"Chiredzi","cou_name_en":"Zimbabwe","coordinates":{"lon":31.66667,"lat":-21.05},"population":40100},{"name":"Villa Alemana","cou_name_en":"Chile","coordinates":{"lon":-71.3729,"lat":-33.04823},"population":97320},{"name":"Jinhua","cou_name_en":"China","coordinates":{"lon":99.91715,"lat":26.538},"population":53523},{"name":"Zhuanghe","cou_name_en":"China","coordinates":{"lon":122.99111,"lat":39.70083},"population":80384},{"name":"Zhaoqing","cou_name_en":"China","coordinates":{"lon":112.46091,"lat":23.04893},"population":1553109},{"name":"Zhangji","cou_name_en":"China","coordinates":{"lon":117.37556,"lat":34.1375},"population":61929},{"name":"Yunmen","cou_name_en":"China","coordinates":{"lon":106.32376,"lat":30.08274},"population":68698},{"name":"Yuanshang","cou_name_en":"China","coordinates":{"lon":120.34556,"lat":36.76833},"population":74253},{"name":"Yongqing","cou_name_en":"China","coordinates":{"lon":106.12694,"lat":34.74806},"population":55595},{"name":"Yong\u2019an","cou_name_en":"China","coordinates":{"lon":109.45949,"lat":31.01894},"population":144314},{"name":"Yingtan","cou_name_en":"China","coordinates":{"lon":117.0,"lat":28.23333},"population":214229},{"name":"Yan\u2019an","cou_name_en":"China","coordinates":{"lon":109.49167,"lat":36.59889},"population":475234},{"name":"Xucheng","cou_name_en":"China","coordinates":{"lon":110.16643,"lat":20.33025},"population":83267},{"name":"Xinglong","cou_name_en":"China","coordinates":{"lon":109.44599,"lat":30.65723},"population":41411},{"name":"Feicheng","cou_name_en":"China","coordinates":{"lon":116.76583,"lat":36.24861},"population":77606},{"name":"Xiazhen","cou_name_en":"China","coordinates":{"lon":117.11167,"lat":34.80222},"population":125667},{"name":"Xianning","cou_name_en":"China","coordinates":{"lon":114.32201,"lat":29.84347},"population":512517},{"name":"Xiagezhuang","cou_name_en":"China","coordinates":{"lon":120.43472,"lat":36.69306},"population":30706},{"name":"Wuxi","cou_name_en":"China","coordinates":{"lon":120.28857,"lat":31.56887},"population":4396835},{"name":"Wenling","cou_name_en":"China","coordinates":{"lon":121.38416,"lat":28.37524},"population":67433},{"name":"Taizhou","cou_name_en":"China","coordinates":{"lon":119.90812,"lat":32.49069},"population":1607108},{"name":"Suqian","cou_name_en":"China","coordinates":{"lon":118.29583,"lat":33.94917},"population":1437685},{"name":"Shangsi","cou_name_en":"China","coordinates":{"lon":107.97953,"lat":22.15627},"population":71468},{"name":"Qina","cou_name_en":"China","coordinates":{"lon":100.62513,"lat":26.30938},"population":36823},{"name":"Pingshan","cou_name_en":"China","coordinates":{"lon":114.71311,"lat":22.99376},"population":113631},{"name":"Hanyuan","cou_name_en":"China","coordinates":{"lon":106.25035,"lat":32.834},"population":50440},{"name":"Mingshui","cou_name_en":"China","coordinates":{"lon":117.5,"lat":36.71667},"population":114858},{"name":"Meishan","cou_name_en":"China","coordinates":{"lon":103.83696,"lat":30.04392},"population":1107742},{"name":"Longgang","cou_name_en":"China","coordinates":{"lon":105.71369,"lat":29.69744},"population":74605},{"name":"Linshi","cou_name_en":"China","coordinates":{"lon":107.19233,"lat":29.66698},"population":41730},{"name":"Linqiong","cou_name_en":"China","coordinates":{"lon":103.46089,"lat":30.41587},"population":55587},{"name":"Lincang","cou_name_en":"China","coordinates":{"lon":100.09455,"lat":23.87972},"population":323708},{"name":"Kongtan","cou_name_en":"China","coordinates":{"lon":104.67474,"lat":29.14408},"population":47125},{"name":"Kaili","cou_name_en":"China","coordinates":{"lon":107.97972,"lat":26.58583},"population":275745},{"name":"Juegang","cou_name_en":"China","coordinates":{"lon":121.18552,"lat":32.31737},"population":73317},{"name":"Jiangyan","cou_name_en":"China","coordinates":{"lon":120.14278,"lat":32.50611},"population":70375},{"name":"Hangu","cou_name_en":"China","coordinates":{"lon":117.78917,"lat":39.24889},"population":208369},{"name":"Haimen","cou_name_en":"China","coordinates":{"lon":116.61219,"lat":23.19346},"population":125427},{"name":"Guangshui","cou_name_en":"China","coordinates":{"lon":113.9978,"lat":31.6199},"population":154771},{"name":"Dongsheng","cou_name_en":"China","coordinates":{"lon":109.97763,"lat":39.81609},"population":99809},{"name":"Daliang","cou_name_en":"China","coordinates":{"lon":113.2503,"lat":22.84067},"population":210411},{"name":"Dajin","cou_name_en":"China","coordinates":{"lon":108.44579,"lat":31.50955},"population":32213},{"name":"Dahuangshan","cou_name_en":"China","coordinates":{"lon":117.34436,"lat":34.29341},"population":44771},{"name":"Chefushan","cou_name_en":"China","coordinates":{"lon":117.75119,"lat":34.47525},"population":45844},{"name":"Changzhou","cou_name_en":"China","coordinates":{"lon":119.95401,"lat":31.77359},"population":3290918},{"name":"Changleng","cou_name_en":"China","coordinates":{"lon":115.81667,"lat":28.7},"population":56429},{"name":"Baiyin","cou_name_en":"China","coordinates":{"lon":104.17023,"lat":36.54696},"population":294400},{"name":"Sanjiao","cou_name_en":"China","coordinates":{"lon":105.86765,"lat":29.48801},"population":46458},{"name":"Tongliao","cou_name_en":"China","coordinates":{"lon":122.26528,"lat":43.6125},"population":261110},{"name":"Tonghua","cou_name_en":"China","coordinates":{"lon":125.92639,"lat":41.71972},"population":510000},{"name":"Tahe","cou_name_en":"China","coordinates":{"lon":124.69761,"lat":52.32148},"population":60874},{"name":"Jixi","cou_name_en":"China","coordinates":{"lon":130.96217,"lat":45.29322},"population":403759},{"name":"Jixian","cou_name_en":"China","coordinates":{"lon":131.13308,"lat":46.72594},"population":59160},{"name":"Chengde","cou_name_en":"China","coordinates":{"lon":117.95883,"lat":40.9519},"population":449325},{"name":"Boli","cou_name_en":"China","coordinates":{"lon":130.58452,"lat":45.7529},"population":95260},{"name":"Bin Xian","cou_name_en":"China","coordinates":{"lon":127.46053,"lat":45.74274},"population":62017},{"name":"Hezhou","cou_name_en":"China","coordinates":{"lon":111.56675,"lat":24.40357},"population":1005490},{"name":"Futian","cou_name_en":"China","coordinates":{"lon":109.71068,"lat":31.22201},"population":32340},{"name":"Wenshan City","cou_name_en":"China","coordinates":{"lon":104.25047,"lat":23.36306},"population":450000},{"name":"Huocheng","cou_name_en":"China","coordinates":{"lon":80.87173,"lat":44.05305},"population":360000},{"name":"Dashahe","cou_name_en":"China","coordinates":{"lon":116.62453,"lat":34.53847},"population":51916},{"name":"Menghuan","cou_name_en":"China","coordinates":{"lon":98.58375,"lat":24.43532},"population":99970},{"name":"Nongzhang","cou_name_en":"China","coordinates":{"lon":97.88218,"lat":24.61601},"population":45270},{"name":"Mangbang","cou_name_en":"China","coordinates":{"lon":98.6701,"lat":24.9319},"population":39273},{"name":"Yousuo","cou_name_en":"China","coordinates":{"lon":100.06771,"lat":26.02527},"population":53233},{"name":"Pereira","cou_name_en":"Colombia","coordinates":{"lon":-75.69611,"lat":4.81333},"population":467269},{"name":"Cimitarra","cou_name_en":"Colombia","coordinates":{"lon":-73.94968,"lat":6.31419},"population":50892},{"name":"Aguachica","cou_name_en":"Colombia","coordinates":{"lon":-73.6166,"lat":8.30844},"population":97525},{"name":"Matanzas","cou_name_en":"Cuba","coordinates":{"lon":-81.5775,"lat":23.04111},"population":146733},{"name":"Cacocum","cou_name_en":"Cuba","coordinates":{"lon":-76.32574,"lat":20.73775},"population":42623},{"name":"Rheda-Wiedenbr\u00fcck","cou_name_en":"Germany","coordinates":{"lon":8.30017,"lat":51.84967},"population":46123},{"name":"Pasing","cou_name_en":"Germany","coordinates":{"lon":11.45599,"lat":48.14146},"population":35728},{"name":"M\u00fchlhausen","cou_name_en":"Germany","coordinates":{"lon":10.45275,"lat":51.20896},"population":38108},{"name":"Merzig","cou_name_en":"Germany","coordinates":{"lon":6.63874,"lat":49.44331},"population":31118},{"name":"Lampertheim","cou_name_en":"Germany","coordinates":{"lon":8.4725,"lat":49.59786},"population":31635},{"name":"Koblenz","cou_name_en":"Germany","coordinates":{"lon":7.57883,"lat":50.35357},"population":107319},{"name":"Hattingen","cou_name_en":"Germany","coordinates":{"lon":7.18557,"lat":51.39894},"population":56866},{"name":"Hanau am Main","cou_name_en":"Germany","coordinates":{"lon":8.91418,"lat":50.13423},"population":88648},{"name":"Gro\u00dfzschocher","cou_name_en":"Germany","coordinates":{"lon":12.32322,"lat":51.30147},"population":597493},{"name":"Erding","cou_name_en":"Germany","coordinates":{"lon":11.90686,"lat":48.30603},"population":33519},{"name":"Dessau","cou_name_en":"Germany","coordinates":{"lon":12.24555,"lat":51.83864},"population":67747},{"name":"Coburg","cou_name_en":"Germany","coordinates":{"lon":10.96384,"lat":50.25937},"population":41901},{"name":"Bruchsal","cou_name_en":"Germany","coordinates":{"lon":8.59804,"lat":49.12426},"population":45364},{"name":"Bergheim","cou_name_en":"Germany","coordinates":{"lon":6.63986,"lat":50.95572},"population":63558},{"name":"Bensheim","cou_name_en":"Germany","coordinates":{"lon":8.61839,"lat":49.68369},"population":39439},{"name":"Gropiusstadt","cou_name_en":"Germany","coordinates":{"lon":13.46053,"lat":52.42686},"population":37686},{"name":"Barmbek-Nord","cou_name_en":"Germany","coordinates":{"lon":10.03988,"lat":53.6052},"population":40261},{"name":"Fennpfuhl","cou_name_en":"Germany","coordinates":{"lon":13.47267,"lat":52.52921},"population":33751},{"name":"Djibouti","cou_name_en":"Djibouti","coordinates":{"lon":43.14503,"lat":11.58901},"population":626512},{"name":"Taastrup","cou_name_en":"Denmark","coordinates":{"lon":12.3016,"lat":55.65006},"population":35238},{"name":"Bella Vista","cou_name_en":"Dominican Republic","coordinates":{"lon":-69.9454,"lat":18.45539},"population":175683},{"name":"Rouached","cou_name_en":"Algeria","coordinates":{"lon":6.04267,"lat":36.45774},"population":40263},{"name":"Meskiana","cou_name_en":"Algeria","coordinates":{"lon":7.66606,"lat":35.63058},"population":30071},{"name":"Constantine","cou_name_en":"Algeria","coordinates":{"lon":6.61472,"lat":36.365},"population":448028},{"name":"Blida","cou_name_en":"Algeria","coordinates":{"lon":2.8277,"lat":36.47004},"population":331779},{"name":"Berriane","cou_name_en":"Algeria","coordinates":{"lon":3.76689,"lat":32.82648},"population":30170},{"name":"B\u00e9ja\u00efa","cou_name_en":"Algeria","coordinates":{"lon":5.08433,"lat":36.75587},"population":176139},{"name":"Vinces","cou_name_en":"Ecuador","coordinates":{"lon":-79.75191,"lat":-1.55611},"population":32497},{"name":"F\u0101rask\u016br","cou_name_en":"Egypt","coordinates":{"lon":31.71507,"lat":31.32977},"population":43400},{"name":"Biyal\u0101","cou_name_en":"Egypt","coordinates":{"lon":31.2218,"lat":31.17419},"population":89068},{"name":"Al Ghan\u0101yim","cou_name_en":"Egypt","coordinates":{"lon":31.32963,"lat":26.87524},"population":70884},{"name":"Aga","cou_name_en":"Egypt","coordinates":{"lon":31.29039,"lat":30.94162},"population":47013},{"name":"Granadilla de Abona","cou_name_en":"Spain","coordinates":{"lon":-16.57599,"lat":28.11882},"population":39993},{"name":"Reus","cou_name_en":"Spain","coordinates":{"lon":1.10687,"lat":41.15612},"population":107118},{"name":"M\u00f3stoles","cou_name_en":"Spain","coordinates":{"lon":-3.86496,"lat":40.32234},"population":206478},{"name":"Colmenar Viejo","cou_name_en":"Spain","coordinates":{"lon":-3.76762,"lat":40.65909},"population":43700},{"name":"Llefi\u00e0","cou_name_en":"Spain","coordinates":{"lon":2.2195,"lat":41.43806},"population":43827},{"name":"Fadhigaradle","cou_name_en":"Ethiopia","coordinates":{"lon":45.29866,"lat":6.17559},"population":34000},{"name":"Waliso","cou_name_en":"Ethiopia","coordinates":{"lon":37.96515,"lat":8.53417},"population":78600},{"name":"Tours","cou_name_en":"France","coordinates":{"lon":0.70398,"lat":47.39484},"population":141621},{"name":"Romans-sur-Is\u00e8re","cou_name_en":"France","coordinates":{"lon":5.06602,"lat":45.0496},"population":35002},{"name":"Montrouge","cou_name_en":"France","coordinates":{"lon":2.31393,"lat":48.8162},"population":38708},{"name":"Melun","cou_name_en":"France","coordinates":{"lon":2.65356,"lat":48.5457},"population":38953},{"name":"Tanda","cou_name_en":"C\u00f4te d'Ivoire","coordinates":{"lon":-3.16832,"lat":7.80335},"population":35854},{"name":"Tegel","cou_name_en":"Germany","coordinates":{"lon":13.29389,"lat":52.57601},"population":36764},{"name":"Caluire-et-Cuire","cou_name_en":"France","coordinates":{"lon":4.8464,"lat":45.79462},"population":42763},{"name":"B\u00e9ziers","cou_name_en":"France","coordinates":{"lon":3.21402,"lat":43.34122},"population":74081},{"name":"Annecy","cou_name_en":"France","coordinates":{"lon":6.12565,"lat":45.90878},"population":49232},{"name":"Amiens","cou_name_en":"France","coordinates":{"lon":2.3,"lat":49.9},"population":143086},{"name":"Wishaw","cou_name_en":"United Kingdom","coordinates":{"lon":-3.91667,"lat":55.76667},"population":30510},{"name":"Warrington","cou_name_en":"United Kingdom","coordinates":{"lon":-2.58024,"lat":53.39254},"population":172330},{"name":"Tamworth","cou_name_en":"United Kingdom","coordinates":{"lon":-1.69587,"lat":52.63399},"population":81964},{"name":"Spalding","cou_name_en":"United Kingdom","coordinates":{"lon":-0.15141,"lat":52.78709},"population":31588},{"name":"Garges-l\u00e8s-Gonesse","cou_name_en":"France","coordinates":{"lon":2.39781,"lat":48.96791},"population":39847},{"name":"Vallenar","cou_name_en":"Chile","coordinates":{"lon":-70.75938,"lat":-28.57617},"population":44895},{"name":"Los Andes","cou_name_en":"Chile","coordinates":{"lon":-70.59827,"lat":-32.83369},"population":56859},{"name":"Loum","cou_name_en":"Cameroon","coordinates":{"lon":9.7351,"lat":4.7182},"population":58554},{"name":"Guider","cou_name_en":"Cameroon","coordinates":{"lon":13.94671,"lat":9.9333},"population":81608},{"name":"Douala","cou_name_en":"Cameroon","coordinates":{"lon":9.70428,"lat":4.04827},"population":1338082},{"name":"Bangangt\u00e9","cou_name_en":"Cameroon","coordinates":{"lon":10.52535,"lat":5.14079},"population":43694},{"name":"Laojunmiao","cou_name_en":"China","coordinates":{"lon":97.73333,"lat":39.83333},"population":84769},{"name":"Kashgar","cou_name_en":"China","coordinates":{"lon":75.98951,"lat":39.47066},"population":506640},{"name":"Jinding","cou_name_en":"China","coordinates":{"lon":99.44061,"lat":26.43903},"population":53667},{"name":"Tangzhang","cou_name_en":"China","coordinates":{"lon":117.25395,"lat":34.14779},"population":52985},{"name":"Zhuyuan","cou_name_en":"China","coordinates":{"lon":109.25806,"lat":31.30216},"population":39338},{"name":"Zhicheng","cou_name_en":"China","coordinates":{"lon":119.90851,"lat":31.00751},"population":63753},{"name":"Zhenxi","cou_name_en":"China","coordinates":{"lon":107.46452,"lat":29.89929},"population":50017},{"name":"Zhelou","cou_name_en":"China","coordinates":{"lon":105.81667,"lat":24.96667},"population":34250},{"name":"Zibo","cou_name_en":"China","coordinates":{"lon":118.06333,"lat":36.79056},"population":3129228},{"name":"Jinghong","cou_name_en":"China","coordinates":{"lon":100.7697,"lat":22.00265},"population":205523},{"name":"Yuanyang","cou_name_en":"China","coordinates":{"lon":106.55749,"lat":29.66572},"population":37009},{"name":"Yanzhou","cou_name_en":"China","coordinates":{"lon":116.82861,"lat":35.55278},"population":254788},{"name":"Xuantan","cou_name_en":"China","coordinates":{"lon":105.56974,"lat":29.20856},"population":69250},{"name":"Xixiang","cou_name_en":"China","coordinates":{"lon":107.764,"lat":32.98703},"population":99867},{"name":"Guixi","cou_name_en":"China","coordinates":{"lon":117.21329,"lat":28.28857},"population":73732},{"name":"Xinzhou","cou_name_en":"China","coordinates":{"lon":109.31146,"lat":19.71446},"population":67316},{"name":"Hancheng","cou_name_en":"China","coordinates":{"lon":112.35222,"lat":32.51861},"population":61633},{"name":"Xintai","cou_name_en":"China","coordinates":{"lon":117.75194,"lat":35.90056},"population":222459},{"name":"Xingguo","cou_name_en":"China","coordinates":{"lon":105.66861,"lat":34.85861},"population":95211},{"name":"Wenfeng","cou_name_en":"China","coordinates":{"lon":109.23459,"lat":31.40495},"population":31338},{"name":"Wenxing","cou_name_en":"China","coordinates":{"lon":112.87864,"lat":28.68208},"population":57117},{"name":"Wujing","cou_name_en":"China","coordinates":{"lon":118.4,"lat":36.45},"population":60260},{"name":"Wuhai","cou_name_en":"China","coordinates":{"lon":106.81583,"lat":39.68442},"population":218427},{"name":"Tuxiang","cou_name_en":"China","coordinates":{"lon":109.15556,"lat":30.71293},"population":41011},{"name":"Tianshui","cou_name_en":"China","coordinates":{"lon":105.74238,"lat":34.57952},"population":1212791},{"name":"Shilong","cou_name_en":"China","coordinates":{"lon":113.84722,"lat":23.11444},"population":109733},{"name":"Shaping","cou_name_en":"China","coordinates":{"lon":107.43587,"lat":30.47463},"population":30928},{"name":"Ronglong","cou_name_en":"China","coordinates":{"lon":105.44865,"lat":29.43589},"population":32983},{"name":"Hongqiao","cou_name_en":"China","coordinates":{"lon":112.10814,"lat":26.76837},"population":58287},{"name":"Qiaotou","cou_name_en":"China","coordinates":{"lon":101.67361,"lat":36.935},"population":114712},{"name":"Luomen","cou_name_en":"China","coordinates":{"lon":105.02472,"lat":34.75417},"population":89998},{"name":"Lingao","cou_name_en":"China","coordinates":{"lon":109.68717,"lat":19.90873},"population":64874},{"name":"Jiangbei","cou_name_en":"China","coordinates":{"lon":106.63506,"lat":29.7283},"population":60466},{"name":"Laibin","cou_name_en":"China","coordinates":{"lon":109.22222,"lat":23.74743},"population":910282},{"name":"Jinji","cou_name_en":"China","coordinates":{"lon":110.82611,"lat":23.22806},"population":56816},{"name":"Jianchang","cou_name_en":"China","coordinates":{"lon":116.63978,"lat":27.55831},"population":109108},{"name":"Fenggang","cou_name_en":"China","coordinates":{"lon":116.21456,"lat":27.54566},"population":64715},{"name":"Duzhou","cou_name_en":"China","coordinates":{"lon":107.0784,"lat":29.87848},"population":51888},{"name":"Duyun","cou_name_en":"China","coordinates":{"lon":107.51667,"lat":26.26667},"population":198516},{"name":"Deyang","cou_name_en":"China","coordinates":{"lon":104.38198,"lat":31.13019},"population":735070},{"name":"Dazhong","cou_name_en":"China","coordinates":{"lon":120.4578,"lat":33.19973},"population":84323},{"name":"Zhangjiajie","cou_name_en":"China","coordinates":{"lon":110.47833,"lat":29.12944},"population":441804},{"name":"Dangjiang","cou_name_en":"China","coordinates":{"lon":109.11667,"lat":21.65},"population":45408},{"name":"Baoding","cou_name_en":"China","coordinates":{"lon":115.46246,"lat":38.87288},"population":2739887},{"name":"Mudu","cou_name_en":"China","coordinates":{"lon":120.51857,"lat":31.25597},"population":61902},{"name":"Zhoucheng","cou_name_en":"China","coordinates":{"lon":116.31167,"lat":35.91222},"population":72070},{"name":"Zhalantun","cou_name_en":"China","coordinates":{"lon":122.73651,"lat":48.00945},"population":132224},{"name":"Yushu","cou_name_en":"China","coordinates":{"lon":126.54063,"lat":44.82751},"population":124736},{"name":"Yakeshi","cou_name_en":"China","coordinates":{"lon":120.73333,"lat":49.28333},"population":116284},{"name":"Huanan","cou_name_en":"China","coordinates":{"lon":130.54642,"lat":46.23624},"population":66087},{"name":"Chifeng","cou_name_en":"China","coordinates":{"lon":118.96361,"lat":42.26833},"population":346654},{"name":"Jinniu","cou_name_en":"China","coordinates":{"lon":100.57435,"lat":25.80062},"population":96883},{"name":"Dunhao","cou_name_en":"China","coordinates":{"lon":108.3582,"lat":31.33301},"population":36863},{"name":"Rugao","cou_name_en":"China","coordinates":{"lon":120.57649,"lat":32.37035},"population":257400},{"name":"Dazeshan","cou_name_en":"China","coordinates":{"lon":119.92224,"lat":36.98874},"population":60034},{"name":"Sogamoso","cou_name_en":"Colombia","coordinates":{"lon":-72.93391,"lat":5.71434},"population":111336},{"name":"Quinch\u00eda","cou_name_en":"Colombia","coordinates":{"lon":-75.73018,"lat":5.33957},"population":34069},{"name":"Pivijay","cou_name_en":"Colombia","coordinates":{"lon":-74.61621,"lat":10.46167},"population":33047},{"name":"Chiquinquir\u00e1","cou_name_en":"Colombia","coordinates":{"lon":-73.81748,"lat":5.61637},"population":45294},{"name":"Cartago","cou_name_en":"Colombia","coordinates":{"lon":-75.91167,"lat":4.74639},"population":134972},{"name":"Cali","cou_name_en":"Colombia","coordinates":{"lon":-76.5225,"lat":3.43722},"population":2392877},{"name":"Agust\u00edn Codazzi","cou_name_en":"Colombia","coordinates":{"lon":-73.23558,"lat":10.03672},"population":51478},{"name":"San Jos\u00e9 del Guaviare","cou_name_en":"Colombia","coordinates":{"lon":-72.64591,"lat":2.57286},"population":52815},{"name":"Piendamo","cou_name_en":"Colombia","coordinates":{"lon":-76.53055,"lat":2.63918},"population":44000},{"name":"Amancio","cou_name_en":"Cuba","coordinates":{"lon":-77.57958,"lat":20.81914},"population":41523},{"name":"Str\u00f3volos","cou_name_en":"Cyprus","coordinates":{"lon":33.33384,"lat":35.14867},"population":67904},{"name":"Hasselt","cou_name_en":"Belgium","coordinates":{"lon":5.33781,"lat":50.93106},"population":77651},{"name":"Yako","cou_name_en":"Burkina Faso","coordinates":{"lon":-2.26075,"lat":12.9591},"population":38679},{"name":"Koudougou","cou_name_en":"Burkina Faso","coordinates":{"lon":-2.36272,"lat":12.25263},"population":160239},{"name":"Pleven","cou_name_en":"Bulgaria","coordinates":{"lon":24.61667,"lat":43.41667},"population":100952},{"name":"Karlovo","cou_name_en":"Bulgaria","coordinates":{"lon":24.8,"lat":42.63333},"population":30340},{"name":"Burgas","cou_name_en":"Bulgaria","coordinates":{"lon":27.46781,"lat":42.50606},"population":195966},{"name":"Gitega","cou_name_en":"Burundi","coordinates":{"lon":29.92463,"lat":-3.42708},"population":64904},{"name":"Djougou","cou_name_en":"Benin","coordinates":{"lon":1.66598,"lat":9.70853},"population":94773},{"name":"Banikoara","cou_name_en":"Benin","coordinates":{"lon":2.43856,"lat":11.29845},"population":37571},{"name":"Abomey-Calavi","cou_name_en":"Benin","coordinates":{"lon":2.35566,"lat":6.44852},"population":385755},{"name":"Riberalta","cou_name_en":"Bolivia","coordinates":{"lon":-66.05257,"lat":-11.01026},"population":99070},{"name":"Vit\u00f3ria de Santo Ant\u00e3o","cou_name_en":"Brazil","coordinates":{"lon":-35.29139,"lat":-8.11806},"population":107383},{"name":"Teresina","cou_name_en":"Brazil","coordinates":{"lon":-42.80194,"lat":-5.08917},"population":871126},{"name":"S\u00e3o Miguel dos Campos","cou_name_en":"Brazil","coordinates":{"lon":-36.09361,"lat":-9.78111},"population":40890},{"name":"Russas","cou_name_en":"Brazil","coordinates":{"lon":-37.97583,"lat":-4.94028},"population":39465},{"name":"Rio Largo","cou_name_en":"Brazil","coordinates":{"lon":-35.85333,"lat":-9.47833},"population":63387},{"name":"Ipojuca","cou_name_en":"Brazil","coordinates":{"lon":-35.06389,"lat":-8.39889},"population":53364},{"name":"Videira","cou_name_en":"Brazil","coordinates":{"lon":-51.15167,"lat":-27.00833},"population":42440},{"name":"Tup\u00e3","cou_name_en":"Brazil","coordinates":{"lon":-50.51361,"lat":-21.93472},"population":62035},{"name":"Santa Maria","cou_name_en":"Brazil","coordinates":{"lon":-53.80694,"lat":-29.68417},"population":283677},{"name":"Po\u00e1","cou_name_en":"Brazil","coordinates":{"lon":-46.34472,"lat":-23.52806},"population":107432},{"name":"Pirapora","cou_name_en":"Brazil","coordinates":{"lon":-44.94194,"lat":-17.345},"population":51656},{"name":"Ourinhos","cou_name_en":"Brazil","coordinates":{"lon":-49.87056,"lat":-22.97889},"population":97799},{"name":"Monte Alto","cou_name_en":"Brazil","coordinates":{"lon":-48.49639,"lat":-21.26111},"population":41893},{"name":"Leme","cou_name_en":"Brazil","coordinates":{"lon":-47.39028,"lat":-22.18556},"population":81209},{"name":"Jaragu\u00e1","cou_name_en":"Brazil","coordinates":{"lon":-49.33444,"lat":-15.75694},"population":30409},{"name":"Itarar\u00e9","cou_name_en":"Brazil","coordinates":{"lon":-49.33167,"lat":-24.1125},"population":44809},{"name":"Itabaiana","cou_name_en":"Brazil","coordinates":{"lon":-37.42528,"lat":-10.685},"population":63888},{"name":"Garibaldi","cou_name_en":"Brazil","coordinates":{"lon":-51.53361,"lat":-29.25611},"population":30364},{"name":"Cruz das Almas","cou_name_en":"Brazil","coordinates":{"lon":-39.10194,"lat":-12.67},"population":47844},{"name":"Cotia","cou_name_en":"Brazil","coordinates":{"lon":-46.91917,"lat":-23.60389},"population":253608},{"name":"Catu","cou_name_en":"Brazil","coordinates":{"lon":-38.37889,"lat":-12.35306},"population":39932},{"name":"Caet\u00e9","cou_name_en":"Brazil","coordinates":{"lon":-43.66972,"lat":-19.88},"population":33231},{"name":"Bertioga","cou_name_en":"Brazil","coordinates":{"lon":-46.13861,"lat":-23.85444},"population":64723},{"name":"Atibaia","cou_name_en":"Brazil","coordinates":{"lon":-46.55028,"lat":-23.11694},"population":144088},{"name":"Aruj\u00e1","cou_name_en":"Brazil","coordinates":{"lon":-46.32083,"lat":-23.39611},"population":91157},{"name":"Reden\u00e7\u00e3o","cou_name_en":"Brazil","coordinates":{"lon":-50.03139,"lat":-8.02861},"population":82464},{"name":"Gaborone","cou_name_en":"Botswana","coordinates":{"lon":25.90859,"lat":-24.65451},"population":246325},{"name":"Zhlobin","cou_name_en":"Belarus","coordinates":{"lon":30.024,"lat":52.8926},"population":76078},{"name":"Rechytsa","cou_name_en":"Belarus","coordinates":{"lon":30.3916,"lat":52.3617},"population":65400},{"name":"Mazyr","cou_name_en":"Belarus","coordinates":{"lon":29.2456,"lat":52.0495},"population":112348},{"name":"Abbotsford","cou_name_en":"Canada","coordinates":{"lon":-122.25257,"lat":49.05798},"population":141397},{"name":"Grande Prairie","cou_name_en":"Canada","coordinates":{"lon":-118.80271,"lat":55.16667},"population":41462},{"name":"Kanata","cou_name_en":"Canada","coordinates":{"lon":-75.91606,"lat":45.3001},"population":90000},{"name":"Mirabel","cou_name_en":"Canada","coordinates":{"lon":-74.08251,"lat":45.65008},"population":34626},{"name":"Newmarket","cou_name_en":"Canada","coordinates":{"lon":-79.46631,"lat":44.05011},"population":84224},{"name":"Norfolk County","cou_name_en":"Canada","coordinates":{"lon":-80.38297,"lat":42.8334},"population":60847},{"name":"Thunder Bay","cou_name_en":"Canada","coordinates":{"lon":-89.25018,"lat":48.38202},"population":107909},{"name":"Saint-Georges","cou_name_en":"Canada","coordinates":{"lon":-70.66526,"lat":46.11353},"population":31173},{"name":"Djugu","cou_name_en":"Congo, Democratic Republic of the","coordinates":{"lon":30.50257,"lat":1.91932},"population":41409},{"name":"Buta","cou_name_en":"Congo, Democratic Republic of the","coordinates":{"lon":24.72997,"lat":2.78582},"population":80751},{"name":"Matadi","cou_name_en":"Congo, Democratic Republic of the","coordinates":{"lon":13.46306,"lat":-5.83861},"population":425662},{"name":"Kikwit","cou_name_en":"Congo, Democratic Republic of the","coordinates":{"lon":18.81619,"lat":-5.04098},"population":509367},{"name":"Gemena","cou_name_en":"Congo, Democratic Republic of the","coordinates":{"lon":19.77234,"lat":3.25651},"population":197159},{"name":"Remscheid","cou_name_en":"Germany","coordinates":{"lon":7.1925,"lat":51.17983},"population":117118},{"name":"Northeim","cou_name_en":"Germany","coordinates":{"lon":9.99997,"lat":51.70662},"population":30894},{"name":"Norderstedt","cou_name_en":"Germany","coordinates":{"lon":9.98041,"lat":53.6859},"population":71439},{"name":"Mettmann","cou_name_en":"Germany","coordinates":{"lon":6.97536,"lat":51.2504},"population":39550},{"name":"Leipzig","cou_name_en":"Germany","coordinates":{"lon":12.37129,"lat":51.33962},"population":504971},{"name":"Krefeld","cou_name_en":"Germany","coordinates":{"lon":6.55381,"lat":51.33645},"population":237984},{"name":"K\u00f6penick","cou_name_en":"Germany","coordinates":{"lon":13.57455,"lat":52.4455},"population":67148},{"name":"Hof","cou_name_en":"Germany","coordinates":{"lon":11.91261,"lat":50.31297},"population":49239},{"name":"Hannover","cou_name_en":"Germany","coordinates":{"lon":9.73322,"lat":52.37052},"population":515140},{"name":"G\u00fctersloh","cou_name_en":"Germany","coordinates":{"lon":8.37853,"lat":51.90693},"population":96180},{"name":"Gotha","cou_name_en":"Germany","coordinates":{"lon":10.70193,"lat":50.94823},"population":46615},{"name":"Germering","cou_name_en":"Germany","coordinates":{"lon":11.3765,"lat":48.13392},"population":40511},{"name":"Fulda","cou_name_en":"Germany","coordinates":{"lon":9.67518,"lat":50.55162},"population":63760},{"name":"Erkelenz","cou_name_en":"Germany","coordinates":{"lon":6.31531,"lat":51.07947},"population":44650},{"name":"D\u00fcsseldorf","cou_name_en":"Germany","coordinates":{"lon":6.77616,"lat":51.22172},"population":620523},{"name":"Dinslaken","cou_name_en":"Germany","coordinates":{"lon":6.7434,"lat":51.56227},"population":70573},{"name":"Burgdorf","cou_name_en":"Germany","coordinates":{"lon":10.0064,"lat":52.44628},"population":30899},{"name":"Bernburg","cou_name_en":"Germany","coordinates":{"lon":11.7401,"lat":51.79464},"population":32113},{"name":"Bayreuth","cou_name_en":"Germany","coordinates":{"lon":11.57893,"lat":49.94782},"population":75061},{"name":"Spandau","cou_name_en":"Germany","coordinates":{"lon":13.19921,"lat":52.5511},"population":39653},{"name":"Valby","cou_name_en":"Denmark","coordinates":{"lon":12.51388,"lat":55.66613},"population":46161},{"name":"Odense","cou_name_en":"Denmark","coordinates":{"lon":10.38831,"lat":55.39594},"population":180863},{"name":"Holstebro","cou_name_en":"Denmark","coordinates":{"lon":8.61607,"lat":56.36009},"population":32072},{"name":"San Juan de la Maguana","cou_name_en":"Dominican Republic","coordinates":{"lon":-71.22991,"lat":18.80588},"population":72950},{"name":"Moca","cou_name_en":"Dominican Republic","coordinates":{"lon":-70.52598,"lat":19.39352},"population":61834},{"name":"Ban\u00ed","cou_name_en":"Dominican Republic","coordinates":{"lon":-70.33185,"lat":18.27964},"population":66709},{"name":"Miliana","cou_name_en":"Algeria","coordinates":{"lon":2.2248,"lat":36.30554},"population":43366},{"name":"Khemis el Khechna","cou_name_en":"Algeria","coordinates":{"lon":3.3308,"lat":36.64997},"population":46965},{"name":"Hassi Bahbah","cou_name_en":"Algeria","coordinates":{"lon":3.0299,"lat":35.07109},"population":77000},{"name":"El Menia","cou_name_en":"Algeria","coordinates":{"lon":2.88417,"lat":30.57556},"population":57344},{"name":"Djamaa","cou_name_en":"Algeria","coordinates":{"lon":5.99306,"lat":33.53388},"population":34920},{"name":"Bordj Bou Arreridj","cou_name_en":"Algeria","coordinates":{"lon":4.76139,"lat":36.07389},"population":158812},{"name":"A\u00efn Taya","cou_name_en":"Algeria","coordinates":{"lon":3.28694,"lat":36.79333},"population":33575},{"name":"A\u00efn Fakroun","cou_name_en":"Algeria","coordinates":{"lon":6.87374,"lat":35.97108},"population":48804},{"name":"El Triunfo","cou_name_en":"Ecuador","coordinates":{"lon":-79.96667,"lat":-1.93333},"population":32282},{"name":"Qu\u0163\u016br","cou_name_en":"Egypt","coordinates":{"lon":30.95614,"lat":30.97225},"population":32043},{"name":"Mu\u0163\u016bbas","cou_name_en":"Egypt","coordinates":{"lon":30.52248,"lat":31.29443},"population":43899},{"name":"Fuwwah","cou_name_en":"Egypt","coordinates":{"lon":30.54908,"lat":31.20365},"population":93392},{"name":"A\u015f \u015e\u0101li\u1e29\u012byah al Jad\u012bdah","cou_name_en":"Egypt","coordinates":{"lon":31.93927,"lat":30.63146},"population":59320},{"name":"Himora","cou_name_en":"Eritrea","coordinates":{"lon":36.60601,"lat":14.30427},"population":46100},{"name":"Molina de Segura","cou_name_en":"Spain","coordinates":{"lon":-1.20763,"lat":38.05456},"population":64065},{"name":"Vilagarc\u00eda de Arousa","cou_name_en":"Spain","coordinates":{"lon":-8.76426,"lat":42.59631},"population":37576},{"name":"Errenteria","cou_name_en":"Spain","coordinates":{"lon":-1.90234,"lat":43.31195},"population":38767},{"name":"Palencia","cou_name_en":"Spain","coordinates":{"lon":-4.52406,"lat":42.00955},"population":82651},{"name":"Legan\u00e9s","cou_name_en":"Spain","coordinates":{"lon":-3.7635,"lat":40.32718},"population":186066},{"name":"Getafe","cou_name_en":"Spain","coordinates":{"lon":-3.73295,"lat":40.30571},"population":167164},{"name":"Bilbao","cou_name_en":"Spain","coordinates":{"lon":-2.92528,"lat":43.26271},"population":345821},{"name":"Alcal\u00e1 de Henares","cou_name_en":"Spain","coordinates":{"lon":-3.35996,"lat":40.48205},"population":204574},{"name":"Wendo","cou_name_en":"Ethiopia","coordinates":{"lon":38.41667,"lat":6.6},"population":59300},{"name":"T\u2019\u012bs Isat","cou_name_en":"Ethiopia","coordinates":{"lon":37.58333,"lat":11.48333},"population":39200},{"name":"Lalibela","cou_name_en":"Ethiopia","coordinates":{"lon":39.04756,"lat":12.03219},"population":39100},{"name":"\u0100wash","cou_name_en":"Ethiopia","coordinates":{"lon":40.16637,"lat":8.99364},"population":36500},{"name":"Villefranche-sur-Sa\u00f4ne","cou_name_en":"France","coordinates":{"lon":4.71961,"lat":45.98967},"population":32994},{"name":"Toulon","cou_name_en":"France","coordinates":{"lon":5.92836,"lat":43.12442},"population":168701},{"name":"Suresnes","cou_name_en":"France","coordinates":{"lon":2.22929,"lat":48.87143},"population":44697},{"name":"Sarcelles","cou_name_en":"France","coordinates":{"lon":2.37821,"lat":48.99739},"population":57979},{"name":"Salon-de-Provence","cou_name_en":"France","coordinates":{"lon":5.09478,"lat":43.64229},"population":41397},{"name":"Saint-Martin-d'H\u00e8res","cou_name_en":"France","coordinates":{"lon":5.76281,"lat":45.1787},"population":35528},{"name":"Saint-\u00c9tienne","cou_name_en":"France","coordinates":{"lon":4.39,"lat":45.43389},"population":176280},{"name":"Nanterre","cou_name_en":"France","coordinates":{"lon":2.20675,"lat":48.89198},"population":86719},{"name":"Montreuil","cou_name_en":"France","coordinates":{"lon":2.44322,"lat":48.86415},"population":111240},{"name":"Montigny-le-Bretonneux","cou_name_en":"France","coordinates":{"lon":2.03405,"lat":48.76636},"population":39063},{"name":"Limoges","cou_name_en":"France","coordinates":{"lon":1.24759,"lat":45.83362},"population":141176},{"name":"Lens","cou_name_en":"France","coordinates":{"lon":2.82791,"lat":50.43302},"population":38265},{"name":"La Seyne-sur-Mer","cou_name_en":"France","coordinates":{"lon":5.87816,"lat":43.10322},"population":62330},{"name":"Wesel","cou_name_en":"Germany","coordinates":{"lon":6.62037,"lat":51.6669},"population":61685},{"name":"Weimar","cou_name_en":"Germany","coordinates":{"lon":11.32903,"lat":50.9803},"population":64727},{"name":"Uelzen","cou_name_en":"Germany","coordinates":{"lon":10.56111,"lat":52.96572},"population":34996},{"name":"Singen","cou_name_en":"Germany","coordinates":{"lon":8.8403,"lat":47.75935},"population":48033},{"name":"Schwerte","cou_name_en":"Germany","coordinates":{"lon":7.5675,"lat":51.44387},"population":50399},{"name":"Sa\u00efoua","cou_name_en":"C\u00f4te d'Ivoire","coordinates":{"lon":-6.278,"lat":6.48535},"population":34860},{"name":"Blol\u00e9quin","cou_name_en":"C\u00f4te d'Ivoire","coordinates":{"lon":-8.00253,"lat":6.56913},"population":41821},{"name":"Ancien-Prozi","cou_name_en":"C\u00f4te d'Ivoire","coordinates":{"lon":-6.96881,"lat":7.66885},"population":31245},{"name":"Fraijanes","cou_name_en":"Guatemala","coordinates":{"lon":-90.44083,"lat":14.46528},"population":58922},{"name":"Kwai Chung","cou_name_en":"Hong Kong, China","coordinates":{"lon":114.13877,"lat":22.36828},"population":331600},{"name":"Taikoo Shing","cou_name_en":"Hong Kong, China","coordinates":{"lon":114.2187,"lat":22.28613},"population":34799},{"name":"Zagreb","cou_name_en":"Croatia","coordinates":{"lon":15.97798,"lat":45.81444},"population":663592},{"name":"Vara\u017edin","cou_name_en":"Croatia","coordinates":{"lon":16.33778,"lat":46.30444},"population":36187},{"name":"Cap-Ha\u00eftien","cou_name_en":"Haiti","coordinates":{"lon":-72.19815,"lat":19.75938},"population":134815},{"name":"Szeged","cou_name_en":"Hungary","coordinates":{"lon":20.14824,"lat":46.253},"population":160766},{"name":"Kazincbarcika","cou_name_en":"Hungary","coordinates":{"lon":20.63333,"lat":48.25},"population":32396},{"name":"Szeksz\u00e1rd","cou_name_en":"Hungary","coordinates":{"lon":18.70905,"lat":46.35014},"population":34174},{"name":"Bandar","cou_name_en":"Indonesia","coordinates":{"lon":99.75,"lat":2.05},"population":31442},{"name":"Sewon","cou_name_en":"Indonesia","coordinates":{"lon":110.35889,"lat":-7.87639},"population":73585},{"name":"Rangkasbitung","cou_name_en":"Indonesia","coordinates":{"lon":106.2494,"lat":-6.3591},"population":137041},{"name":"Pangkalpinang","cou_name_en":"Indonesia","coordinates":{"lon":106.11377,"lat":-2.12914},"population":216893},{"name":"Kawalu","cou_name_en":"Indonesia","coordinates":{"lon":108.2082,"lat":-7.3817},"population":50541},{"name":"Re\u1e96ovot","cou_name_en":"Israel","coordinates":{"lon":34.81199,"lat":31.89421},"population":149392},{"name":"Qiryat Bialik","cou_name_en":"Israel","coordinates":{"lon":35.08583,"lat":32.8275},"population":43955},{"name":"Upleta","cou_name_en":"India","coordinates":{"lon":70.28256,"lat":21.74015},"population":56354},{"name":"Udaipur","cou_name_en":"India","coordinates":{"lon":75.47178,"lat":27.72297},"population":30264},{"name":"Ooty","cou_name_en":"India","coordinates":{"lon":76.69521,"lat":11.4134},"population":233426},{"name":"Talegaon D\u0101bh\u0101de","cou_name_en":"India","coordinates":{"lon":73.67561,"lat":18.73502},"population":47653},{"name":"T\u0101depalleg\u016bdem","cou_name_en":"India","coordinates":{"lon":81.52717,"lat":16.81467},"population":108167},{"name":"Siuri","cou_name_en":"India","coordinates":{"lon":87.52773,"lat":23.90806},"population":64659},{"name":"Shimla","cou_name_en":"India","coordinates":{"lon":77.16662,"lat":31.10442},"population":173503},{"name":"Sikandra Rao","cou_name_en":"India","coordinates":{"lon":78.37985,"lat":27.68859},"population":42229},{"name":"Sh\u0101hpur","cou_name_en":"India","coordinates":{"lon":76.8422,"lat":16.69605},"population":31422},{"name":"Sh\u0101h\u0101b\u0101d","cou_name_en":"India","coordinates":{"lon":76.94361,"lat":17.1307},"population":52952},{"name":"S\u0101l\u016br","cou_name_en":"India","coordinates":{"lon":83.20548,"lat":18.51716},"population":50206},{"name":"Sainthia","cou_name_en":"India","coordinates":{"lon":87.68045,"lat":23.94826},"population":43221},{"name":"Ratl\u0101m","cou_name_en":"India","coordinates":{"lon":75.04032,"lat":23.33033},"population":236843},{"name":"R\u0101n\u012bganj","cou_name_en":"India","coordinates":{"lon":87.13061,"lat":23.6164},"population":131261},{"name":"R\u0101j\u0101khera","cou_name_en":"India","coordinates":{"lon":78.171,"lat":26.89802},"population":30627},{"name":"P\u0101vugada","cou_name_en":"India","coordinates":{"lon":77.28018,"lat":14.09953},"population":32063},{"name":"Pati\u0101la","cou_name_en":"India","coordinates":{"lon":76.3922,"lat":30.33625},"population":329224},{"name":"Patancheru","cou_name_en":"India","coordinates":{"lon":78.2645,"lat":17.53334},"population":46821},{"name":"P\u0101li","cou_name_en":"India","coordinates":{"lon":73.32335,"lat":25.77276},"population":210103},{"name":"P\u0101lanpur","cou_name_en":"India","coordinates":{"lon":72.43827,"lat":24.17128},"population":123294},{"name":"Padrauna","cou_name_en":"India","coordinates":{"lon":83.98087,"lat":26.90403},"population":47181},{"name":"N\u0101r\u0101yanpet","cou_name_en":"India","coordinates":{"lon":77.4954,"lat":16.74799},"population":39041},{"name":"Nalgonda","cou_name_en":"India","coordinates":{"lon":79.26707,"lat":17.05439},"population":121826},{"name":"Muzaffarpur","cou_name_en":"India","coordinates":{"lon":85.39055,"lat":26.12259},"population":333200},{"name":"Moga","cou_name_en":"India","coordinates":{"lon":75.16878,"lat":30.81383},"population":130549},{"name":"Meerut","cou_name_en":"India","coordinates":{"lon":77.70636,"lat":28.98002},"population":1223184},{"name":"Manglaur","cou_name_en":"India","coordinates":{"lon":77.87836,"lat":29.79094},"population":46395},{"name":"Malaut","cou_name_en":"India","coordinates":{"lon":74.4818,"lat":30.21121},"population":76616},{"name":"Kunnamkulam","cou_name_en":"India","coordinates":{"lon":76.06695,"lat":10.64667},"population":63903},{"name":"Khagaria","cou_name_en":"India","coordinates":{"lon":86.46708,"lat":25.5022},"population":49982},{"name":"Kanchipuram","cou_name_en":"India","coordinates":{"lon":79.70006,"lat":12.83515},"population":221715},{"name":"K\u0101lpi","cou_name_en":"India","coordinates":{"lon":79.73333,"lat":26.11667},"population":44339},{"name":"Jangipur","cou_name_en":"India","coordinates":{"lon":88.07659,"lat":24.47001},"population":82548},{"name":"Hubli","cou_name_en":"India","coordinates":{"lon":75.13378,"lat":15.34776},"population":840214},{"name":"Gursah\u0101iganj","cou_name_en":"India","coordinates":{"lon":79.73174,"lat":27.11518},"population":40214},{"name":"Ellore","cou_name_en":"India","coordinates":{"lon":81.10437,"lat":16.71311},"population":183387},{"name":"Dibai","cou_name_en":"India","coordinates":{"lon":78.26173,"lat":28.20849},"population":37873},{"name":"Diamond Harbour","cou_name_en":"India","coordinates":{"lon":88.19047,"lat":22.19101},"population":41802},{"name":"Dharmavaram","cou_name_en":"India","coordinates":{"lon":77.72035,"lat":14.41435},"population":114050},{"name":"Devakottai","cou_name_en":"India","coordinates":{"lon":78.8233,"lat":9.94704},"population":41568},{"name":"Dausa","cou_name_en":"India","coordinates":{"lon":76.33584,"lat":26.89},"population":73034},{"name":"Dabw\u0101li","cou_name_en":"India","coordinates":{"lon":74.73832,"lat":29.94906},"population":62113},{"name":"Canning","cou_name_en":"India","coordinates":{"lon":88.66508,"lat":22.31399},"population":42132},{"name":"Biaora","cou_name_en":"India","coordinates":{"lon":76.91074,"lat":23.9205},"population":41989},{"name":"Bhind","cou_name_en":"India","coordinates":{"lon":78.78728,"lat":26.56671},"population":174035},{"name":"Bhaw\u0101nipatna","cou_name_en":"India","coordinates":{"lon":83.16697,"lat":19.90717},"population":64468},{"name":"Bh\u0101tp\u0101ra","cou_name_en":"India","coordinates":{"lon":88.40113,"lat":22.86643},"population":483129},{"name":"Bellary","cou_name_en":"India","coordinates":{"lon":76.92398,"lat":15.14205},"population":336681},{"name":"B\u0101nkura","cou_name_en":"India","coordinates":{"lon":87.0716,"lat":23.23241},"population":133966},{"name":"Bandipura","cou_name_en":"India","coordinates":{"lon":74.64308,"lat":34.41728},"population":31978},{"name":"Baheri","cou_name_en":"India","coordinates":{"lon":79.4974,"lat":28.77416},"population":63953},{"name":"Athni","cou_name_en":"India","coordinates":{"lon":75.06421,"lat":16.72613},"population":42047},{"name":"\u014cdach\u014d-\u014dda","cou_name_en":"Japan","coordinates":{"lon":132.50846,"lat":35.19025},"population":34354},{"name":"N\u014dgata","cou_name_en":"Japan","coordinates":{"lon":130.72263,"lat":33.74051},"population":56821},{"name":"Nichinan","cou_name_en":"Japan","coordinates":{"lon":131.36667,"lat":31.6},"population":51241},{"name":"Kakegawa","cou_name_en":"Japan","coordinates":{"lon":138.01667,"lat":34.76667},"population":117925},{"name":"Isesaki","cou_name_en":"Japan","coordinates":{"lon":139.2,"lat":36.31667},"population":130692},{"name":"H\u014dfu","cou_name_en":"Japan","coordinates":{"lon":131.56667,"lat":34.05},"population":116925},{"name":"Himeji","cou_name_en":"Japan","coordinates":{"lon":134.7,"lat":34.81667},"population":525682},{"name":"Gamag\u014dri","cou_name_en":"Japan","coordinates":{"lon":137.23333,"lat":34.83333},"population":80063},{"name":"Amagasaki","cou_name_en":"Japan","coordinates":{"lon":135.41667,"lat":34.71667},"population":442173},{"name":"Sawara","cou_name_en":"Japan","coordinates":{"lon":140.5,"lat":35.88333},"population":47199},{"name":"Kaminoyama","cou_name_en":"Japan","coordinates":{"lon":140.27361,"lat":38.15389},"population":35593},{"name":"Hakodate","cou_name_en":"Japan","coordinates":{"lon":140.73667,"lat":41.77583},"population":275730},{"name":"Kaga","cou_name_en":"Japan","coordinates":{"lon":136.33333,"lat":36.3},"population":67793},{"name":"Minami-S\u014dma","cou_name_en":"Japan","coordinates":{"lon":140.97868,"lat":37.62908},"population":59005},{"name":"Guj\u014d","cou_name_en":"Japan","coordinates":{"lon":136.95852,"lat":35.73691},"population":41858},{"name":"Kiyose","cou_name_en":"Japan","coordinates":{"lon":139.53014,"lat":35.77952},"population":74972},{"name":"Maralal","cou_name_en":"Kenya","coordinates":{"lon":36.69806,"lat":1.09667},"population":31350},{"name":"Ongata Rongai","cou_name_en":"Kenya","coordinates":{"lon":36.764,"lat":-1.3953},"population":172569},{"name":"Kisumu","cou_name_en":"Kenya","coordinates":{"lon":34.76171,"lat":-0.10221},"population":397957},{"name":"Kiserian","cou_name_en":"Kenya","coordinates":{"lon":36.6865,"lat":-1.4275},"population":76903},{"name":"Karuri","cou_name_en":"Kenya","coordinates":{"lon":36.7564,"lat":-1.17641},"population":194342},{"name":"Hwangju-\u016dp","cou_name_en":"Korea, Dem. People's Rep. of","coordinates":{"lon":125.77611,"lat":38.67028},"population":35641},{"name":"Hamh\u016dng","cou_name_en":"Korea, Dem. People's Rep. of","coordinates":{"lon":127.53639,"lat":39.91833},"population":559056},{"name":"Hoery\u014fng","cou_name_en":"Korea, Dem. People's Rep. of","coordinates":{"lon":129.74601,"lat":42.44113},"population":43831},{"name":"Seoul","cou_name_en":"Korea, Republic of","coordinates":{"lon":126.9784,"lat":37.566},"population":10349312},{"name":"Asan","cou_name_en":"Korea, Republic of","coordinates":{"lon":127.00417,"lat":36.78361},"population":97749},{"name":"Koesan","cou_name_en":"Korea, Republic of","coordinates":{"lon":127.79472,"lat":36.81083},"population":44461},{"name":"Jinan-gun","cou_name_en":"Korea, Republic of","coordinates":{"lon":127.42528,"lat":35.79167},"population":31273},{"name":"Namyangju","cou_name_en":"Korea, Republic of","coordinates":{"lon":127.21417,"lat":37.63667},"population":90798},{"name":"Shevchenko","cou_name_en":"Kazakhstan","coordinates":{"lon":51.17222,"lat":43.64806},"population":147443},{"name":"Savannakhet","cou_name_en":"Lao People's Dem. Rep.","coordinates":{"lon":104.7622,"lat":16.5703},"population":125760},{"name":"Negombo","cou_name_en":"Sri Lanka","coordinates":{"lon":79.8358,"lat":7.2083},"population":137223},{"name":"Battaramulla South","cou_name_en":"Sri Lanka","coordinates":{"lon":79.9181,"lat":6.8964},"population":75633},{"name":"Ampara","cou_name_en":"Sri Lanka","coordinates":{"lon":81.68202,"lat":7.29754},"population":43720},{"name":"Antakalnis","cou_name_en":"Lithuania","coordinates":{"lon":25.31706,"lat":54.70781},"population":40000},{"name":"Luxembourg","cou_name_en":"Luxembourg","coordinates":{"lon":6.13,"lat":49.61167},"population":76684},{"name":"Benghazi","cou_name_en":"Libyan Arab Jamahiriya","coordinates":{"lon":20.06859,"lat":32.11486},"population":757490},{"name":"Al Jawf","cou_name_en":"Libyan Arab Jamahiriya","coordinates":{"lon":23.29093,"lat":24.1989},"population":42079},{"name":"Tiznit","cou_name_en":"Morocco","coordinates":{"lon":-9.73162,"lat":29.69742},"population":81569},{"name":"Taza","cou_name_en":"Morocco","coordinates":{"lon":-4.01,"lat":34.21},"population":162110},{"name":"Safi","cou_name_en":"Morocco","coordinates":{"lon":-9.23718,"lat":32.29939},"population":336883},{"name":"Rhondda","cou_name_en":"United Kingdom","coordinates":{"lon":-3.44885,"lat":51.65896},"population":59450},{"name":"Portsmouth","cou_name_en":"United Kingdom","coordinates":{"lon":-1.09125,"lat":50.79899},"population":208100},{"name":"Lancaster","cou_name_en":"United Kingdom","coordinates":{"lon":-2.79988,"lat":54.04649},"population":47162},{"name":"Ebbw Vale","cou_name_en":"United Kingdom","coordinates":{"lon":-3.20792,"lat":51.77714},"population":33068},{"name":"Boston","cou_name_en":"United Kingdom","coordinates":{"lon":-0.02664,"lat":52.97633},"population":41340},{"name":"Ts\u2019khinvali","cou_name_en":"Georgia","coordinates":{"lon":43.96861,"lat":42.22764},"population":32180},{"name":"Kade","cou_name_en":"Ghana","coordinates":{"lon":-0.83599,"lat":6.09392},"population":30233},{"name":"Buduburam","cou_name_en":"Ghana","coordinates":{"lon":-0.47718,"lat":5.52314},"population":63217},{"name":"Bibiani","cou_name_en":"Ghana","coordinates":{"lon":-2.31635,"lat":6.45196},"population":36487},{"name":"Camayenne","cou_name_en":"Guinea","coordinates":{"lon":-13.68778,"lat":9.535},"population":1871242},{"name":"Malabo","cou_name_en":"Equatorial Guinea","coordinates":{"lon":8.78166,"lat":3.75578},"population":155963},{"name":"San Juan Sacatep\u00e9quez","cou_name_en":"Guatemala","coordinates":{"lon":-90.64417,"lat":14.71889},"population":136886},{"name":"Castelvetrano","cou_name_en":"Italy","coordinates":{"lon":12.79194,"lat":37.68081},"population":31680},{"name":"Marcianise","cou_name_en":"Italy","coordinates":{"lon":14.29868,"lat":41.03064},"population":40239},{"name":"Lodi","cou_name_en":"Italy","coordinates":{"lon":9.50085,"lat":45.30989},"population":40767},{"name":"Corsico","cou_name_en":"Italy","coordinates":{"lon":9.11093,"lat":45.43099},"population":33669},{"name":"Arras","cou_name_en":"France","coordinates":{"lon":2.78186,"lat":50.29301},"population":47052},{"name":"Angers","cou_name_en":"France","coordinates":{"lon":-0.55202,"lat":47.47156},"population":168279},{"name":"Wembley","cou_name_en":"United Kingdom","coordinates":{"lon":-0.29686,"lat":51.55242},"population":90045},{"name":"Welling","cou_name_en":"United Kingdom","coordinates":{"lon":0.10759,"lat":51.46246},"population":42500},{"name":"Watford","cou_name_en":"United Kingdom","coordinates":{"lon":-0.39602,"lat":51.65531},"population":125707},{"name":"Sheffield","cou_name_en":"United Kingdom","coordinates":{"lon":-1.4659,"lat":53.38297},"population":556500},{"name":"Mandeville","cou_name_en":"Jamaica","coordinates":{"lon":-77.50714,"lat":18.04168},"population":47115},{"name":"Zama","cou_name_en":"Japan","coordinates":{"lon":139.39101,"lat":35.4879},