[{"name":"'s-Hertogenbosch","cou_name_en":"Netherlands","coordinates":{"lon":5.30417,"lat":51.69917},"population":134520},{"name":"6th of October City","cou_name_en":"Egypt","coordinates":{"lon":31.05,"lat":29.81667},"population":368650},{"name":"A Coru\u00f1a","cou_name_en":"Spain","coordinates":{"lon":-8.396,"lat":43.37135},"population":246056},{"name":"Aachen","cou_name_en":"Germany","coordinates":{"lon":6.08342,"lat":50.77664},"population":265208},{"name":"Aalborg","cou_name_en":"Denmark","coordinates":{"lon":9.9187,"lat":57.048},"population":142937},{"name":"Aba","cou_name_en":"Nigeria","coordinates":{"lon":7.36667,"lat":5.10658},"population":1160000},{"name":"Abadan","cou_name_en":"Iran, Islamic Rep. of","coordinates":{"lon":48.3043,"lat":30.3392},"population":370180},{"name":"Abakaliki","cou_name_en":"Nigeria","coordinates":{"lon":8.11368,"lat":6.32485},"population":134102},{"name":"Abakan","cou_name_en":"Russian Federation","coordinates":{"lon":91.42917,"lat":53.71556},"population":184168},{"name":"Abbotsford","cou_name_en":"Canada","coordinates":{"lon":-122.25257,"lat":49.05798},"population":141397},{"name":"Abbottabad","cou_name_en":"Pakistan","coordinates":{"lon":73.21168,"lat":34.1463},"population":120000},{"name":"Abengourou","cou_name_en":"C\u00f4te d'Ivoire","coordinates":{"lon":-3.49639,"lat":6.72972},"population":130810},{"name":"Abeokuta","cou_name_en":"Nigeria","coordinates":{"lon":3.34509,"lat":7.15571},"population":735000},{"name":"Aberdeen","cou_name_en":"Hong Kong, China","coordinates":{"lon":114.15289,"lat":22.24802},"population":157400},{"name":"Aberdeen","cou_name_en":"United Kingdom","coordinates":{"lon":-2.09814,"lat":57.14369},"population":198590},{"name":"Abha","cou_name_en":"Saudi Arabia","coordinates":{"lon":42.50528,"lat":18.21639},"population":210886},{"name":"Abidjan","cou_name_en":"C\u00f4te d'Ivoire","coordinates":{"lon":-4.00167,"lat":5.35444},"population":6321017},{"name":"Abiko","cou_name_en":"Japan","coordinates":{"lon":140.01667,"lat":35.86667},"population":131771},{"name":"Abilene","cou_name_en":"United States","coordinates":{"lon":-99.73314,"lat":32.44874},"population":125182},{"name":"Abn\u016bb","cou_name_en":"Egypt","coordinates":{"lon":31.15232,"lat":27.26881},"population":111785},{"name":"Abobo","cou_name_en":"C\u00f4te d'Ivoire","coordinates":{"lon":-4.0159,"lat":5.41613},"population":1340083},{"name":"Abohar","cou_name_en":"India","coordinates":{"lon":74.19552,"lat":30.14453},"population":130603},{"name":"Abomey","cou_name_en":"Benin","coordinates":{"lon":1.99119,"lat":7.18286},"population":117824},{"name":"Abomey-Calavi","cou_name_en":"Benin","coordinates":{"lon":2.35566,"lat":6.44852},"population":385755},{"name":"Abu Dhabi","cou_name_en":"United Arab Emirates","coordinates":{"lon":54.39696,"lat":24.45118},"population":1807000},{"name":"Abuja","cou_name_en":"Nigeria","coordinates":{"lon":7.49508,"lat":9.05785},"population":2690000},{"name":"Ab\u00e9ch\u00e9","cou_name_en":"Chad","coordinates":{"lon":20.8324,"lat":13.82916},"population":139983},{"name":"Ab\u016b Ghurayb","cou_name_en":"Iraq","coordinates":{"lon":44.18477,"lat":33.30563},"population":900000},{"name":"Ab\u016b Kab\u012br","cou_name_en":"Egypt","coordinates":{"lon":31.67148,"lat":30.72508},"population":154466},{"name":"Ab\u016b T\u012bj","cou_name_en":"Egypt","coordinates":{"lon":31.31845,"lat":27.04514},"population":105418},{"name":"Acapulco de Ju\u00e1rez","cou_name_en":"Mexico","coordinates":{"lon":-99.90891,"lat":16.84942},"population":673479},{"name":"Acarigua","cou_name_en":"Venezuela, Bolivarian Rep. of","coordinates":{"lon":-69.19564,"lat":9.55451},"population":188278},{"name":"Accra","cou_name_en":"Ghana","coordinates":{"lon":-0.1969,"lat":5.55602},"population":1963264},{"name":"Achalpur","cou_name_en":"India","coordinates":{"lon":77.51006,"lat":21.25665},"population":111278},{"name":"Acheng","cou_name_en":"China","coordinates":{"lon":126.95191,"lat":45.54558},"population":144665},{"name":"Achinsk","cou_name_en":"Russian Federation","coordinates":{"lon":90.4993,"lat":56.2694},"population":117634},{"name":"Acilia-Castel Fusano-Ostia Antica","cou_name_en":"Italy","coordinates":{"lon":12.33078,"lat":41.76337},"population":129362},{"name":"Ad D\u012bw\u0101n\u012byah","cou_name_en":"Iraq","coordinates":{"lon":44.92552,"lat":31.99289},"population":318801},{"name":"Ad-Damazin","cou_name_en":"Sudan, The Republic of","coordinates":{"lon":34.3592,"lat":11.7891},"population":186051},{"name":"Adana","cou_name_en":"Turkey","coordinates":{"lon":35.32531,"lat":36.98615},"population":1779463},{"name":"Adapazar\u0131","cou_name_en":"Turkey","coordinates":{"lon":30.40333,"lat":40.78056},"population":286787},{"name":"Addis Ababa","cou_name_en":"Ethiopia","coordinates":{"lon":38.74689,"lat":9.02497},"population":3860000},{"name":"Adelaide","cou_name_en":"Australia","coordinates":{"lon":138.59863,"lat":-34.92866},"population":1387290},{"name":"Aden","cou_name_en":"Yemen","coordinates":{"lon":45.03667,"lat":12.77944},"population":863000},{"name":"Adiwerna","cou_name_en":"Indonesia","coordinates":{"lon":109.1325,"lat":-6.9375},"population":134188},{"name":"Admiralteisky","cou_name_en":"Russian Federation","coordinates":{"lon":30.28484,"lat":59.90839},"population":157897},{"name":"Ado-Ekiti","cou_name_en":"Nigeria","coordinates":{"lon":5.22087,"lat":7.62329},"population":435000},{"name":"Ad\u0131yaman","cou_name_en":"Turkey","coordinates":{"lon":38.27629,"lat":37.76441},"population":267131},{"name":"Afyonkarahisar","cou_name_en":"Turkey","coordinates":{"lon":30.54333,"lat":38.75667},"population":251799},{"name":"Agadez","cou_name_en":"Niger","coordinates":{"lon":7.99111,"lat":16.97333},"population":149549},{"name":"Agadir","cou_name_en":"Morocco","coordinates":{"lon":-9.59815,"lat":30.42018},"population":698310},{"name":"Agartala","cou_name_en":"India","coordinates":{"lon":91.27939,"lat":23.83605},"population":203264},{"name":"Ageoshimo","cou_name_en":"Japan","coordinates":{"lon":139.61382,"lat":35.97145},"population":219401},{"name":"Agra","cou_name_en":"India","coordinates":{"lon":78.01667,"lat":27.18333},"population":1430055},{"name":"Aguascalientes","cou_name_en":"Mexico","coordinates":{"lon":-102.28259,"lat":21.88234},"population":722250},{"name":"Ahmadnagar","cou_name_en":"India","coordinates":{"lon":74.73843,"lat":19.09457},"population":367140},{"name":"Ahmadpur East","cou_name_en":"Pakistan","coordinates":{"lon":71.25771,"lat":29.14269},"population":116579},{"name":"Ahmedabad","cou_name_en":"India","coordinates":{"lon":72.58727,"lat":23.02579},"population":6357693},{"name":"Ahvaz","cou_name_en":"Iran, Islamic Rep. of","coordinates":{"lon":48.6842,"lat":31.31901},"population":841145},{"name":"Ait Melloul","cou_name_en":"Morocco","coordinates":{"lon":-9.50356,"lat":30.34164},"population":187652},{"name":"Aix-en-Provence","cou_name_en":"France","coordinates":{"lon":5.44973,"lat":43.5283},"population":146821},{"name":"Aizawl","cou_name_en":"India","coordinates":{"lon":92.71791,"lat":23.72894},"population":265331},{"name":"Ajax","cou_name_en":"Canada","coordinates":{"lon":-79.03288,"lat":43.85012},"population":119677},{"name":"Ajdabiya","cou_name_en":"Libyan Arab Jamahiriya","coordinates":{"lon":20.22625,"lat":30.75545},"population":131773},{"name":"Ajman City","cou_name_en":"United Arab Emirates","coordinates":{"lon":55.47878,"lat":25.40177},"population":490035},{"name":"Ajmer","cou_name_en":"India","coordinates":{"lon":74.63867,"lat":26.4521},"population":517911},{"name":"Akademicheskoe","cou_name_en":"Russian Federation","coordinates":{"lon":30.39471,"lat":60.01375},"population":103304},{"name":"Akashi","cou_name_en":"Japan","coordinates":{"lon":135.00687,"lat":34.65524},"population":297279},{"name":"Akhm\u012bm","cou_name_en":"Egypt","coordinates":{"lon":31.74566,"lat":26.5622},"population":151430},{"name":"Akishima","cou_name_en":"Japan","coordinates":{"lon":139.37999,"lat":35.72085},"population":112905},{"name":"Akita","cou_name_en":"Japan","coordinates":{"lon":140.11667,"lat":39.71667},"population":305625},{"name":"Akola","cou_name_en":"India","coordinates":{"lon":76.9981,"lat":20.70957},"population":428857},{"name":"Akron","cou_name_en":"United States","coordinates":{"lon":-81.51901,"lat":41.08144},"population":197542},{"name":"Aksaray","cou_name_en":"Turkey","coordinates":{"lon":34.02537,"lat":38.37255},"population":247147},{"name":"Aksu","cou_name_en":"China","coordinates":{"lon":80.27921,"lat":41.18418},"population":535657},{"name":"Aktobe","cou_name_en":"Kazakhstan","coordinates":{"lon":57.20718,"lat":50.27969},"population":500757},{"name":"Akure","cou_name_en":"Nigeria","coordinates":{"lon":5.19312,"lat":7.25256},"population":730000},{"name":"Al Ain City","cou_name_en":"United Arab Emirates","coordinates":{"lon":55.76056,"lat":24.19167},"population":846747},{"name":"Al Ajaylat","cou_name_en":"Libyan Arab Jamahiriya","coordinates":{"lon":12.37633,"lat":32.75718},"population":130546},{"name":"Al A\u1e29mad\u012b","cou_name_en":"Kuwait","coordinates":{"lon":48.08389,"lat":29.07694},"population":637411},{"name":"Al Bay\u1e11\u0101\u2019","cou_name_en":"Libyan Arab Jamahiriya","coordinates":{"lon":21.75506,"lat":32.76272},"population":129439},{"name":"Al Ba\u015frah al Qad\u012bmah","cou_name_en":"Iraq","coordinates":{"lon":47.81507,"lat":30.50316},"population":2015483},{"name":"Al B\u0101b","cou_name_en":"Syrian Arab Republic","coordinates":{"lon":37.5157,"lat":36.37051},"population":130745},{"name":"Al Fall\u016bjah","cou_name_en":"Iraq","coordinates":{"lon":43.78599,"lat":33.34913},"population":190159},{"name":"Al Fashn","cou_name_en":"Egypt","coordinates":{"lon":30.89903,"lat":28.82306},"population":112999},{"name":"Al Fayyum","cou_name_en":"Egypt","coordinates":{"lon":30.8418,"lat":29.30995},"population":519047},{"name":"Al Fqih Ben \u00c7alah","cou_name_en":"Morocco","coordinates":{"lon":-6.68771,"lat":32.50213},"population":111402},{"name":"Al F\u0101w","cou_name_en":"Iraq","coordinates":{"lon":48.47309,"lat":29.97421},"population":104569},{"name":"Al Hoce\u00efma","cou_name_en":"Morocco","coordinates":{"lon":-3.93723,"lat":35.25165},"population":395644},{"name":"Al Huf\u016bf","cou_name_en":"Saudi Arabia","coordinates":{"lon":49.58764,"lat":25.36467},"population":293179},{"name":"Al Jad\u012bd","cou_name_en":"Libyan Arab Jamahiriya","coordinates":{"lon":14.4,"lat":27.05},"population":126386},{"name":"Al Jubayl","cou_name_en":"Saudi Arabia","coordinates":{"lon":49.62251,"lat":27.0174},"population":237274},{"name":"Al Jumayl","cou_name_en":"Libyan Arab Jamahiriya","coordinates":{"lon":12.0612,"lat":32.85286},"population":102000},{"name":"Al Kharj","cou_name_en":"Saudi Arabia","coordinates":{"lon":47.33457,"lat":24.15541},"population":425300},{"name":"Al Khums","cou_name_en":"Libyan Arab Jamahiriya","coordinates":{"lon":14.26191,"lat":32.64861},"population":201943},{"name":"Al Khu\u015f\u016b\u015f","cou_name_en":"Egypt","coordinates":{"lon":31.31501,"lat":30.15293},"population":488904},{"name":"Al K\u016bt","cou_name_en":"Iraq","coordinates":{"lon":45.81817,"lat":32.5128},"population":315162},{"name":"Al Mansurah","cou_name_en":"Egypt","coordinates":{"lon":31.38069,"lat":31.03637},"population":621953},{"name":"Al Manzalah","cou_name_en":"Egypt","coordinates":{"lon":31.936,"lat":31.15823},"population":127394},{"name":"Al Man\u0101qil","cou_name_en":"Sudan, The Republic of","coordinates":{"lon":32.9891,"lat":14.2459},"population":128297},{"name":"Al Maw\u015fil al Jad\u012bdah","cou_name_en":"Iraq","coordinates":{"lon":43.10555,"lat":36.33271},"population":2065597},{"name":"Al Ma\u0163ar\u012byah","cou_name_en":"Egypt","coordinates":{"lon":32.03108,"lat":31.18287},"population":162045},{"name":"Al Ma\u1e29allah al Kubr\u00e1","cou_name_en":"Egypt","coordinates":{"lon":31.1669,"lat":30.97063},"population":592573},{"name":"Al Mubarraz","cou_name_en":"Saudi Arabia","coordinates":{"lon":49.59028,"lat":25.40768},"population":290802},{"name":"Al Qadarif","cou_name_en":"Sudan, The Republic of","coordinates":{"lon":35.38344,"lat":14.03493},"population":363945},{"name":"Al Q\u0101hirah al Jad\u012bdah","cou_name_en":"Egypt","coordinates":{"lon":31.44446,"lat":30.04214},"population":313139},{"name":"Al \u1e28asakah","cou_name_en":"Syrian Arab Republic","coordinates":{"lon":40.74772,"lat":36.50237},"population":422445},{"name":"Al \u1e28aw\u0101mid\u012byah","cou_name_en":"Egypt","coordinates":{"lon":31.25,"lat":29.9},"population":155055},{"name":"Al \u1e28illah","cou_name_en":"Iraq","coordinates":{"lon":44.41963,"lat":32.46367},"population":455700},{"name":"Al \u1e28udaydah","cou_name_en":"Yemen","coordinates":{"lon":42.95452,"lat":14.79781},"population":617871},{"name":"Al \u2018Am\u0101rah","cou_name_en":"Iraq","coordinates":{"lon":47.14483,"lat":31.83561},"population":323302},{"name":"Al \u2018\u0100shir min Rama\u1e11\u0101n","cou_name_en":"Egypt","coordinates":{"lon":31.74633,"lat":30.29636},"population":246148},{"name":"Al-'Ub\u016br","cou_name_en":"Egypt","coordinates":{"lon":31.48149,"lat":30.22886},"population":138987},{"name":"Alagoinhas","cou_name_en":"Brazil","coordinates":{"lon":-38.41917,"lat":-12.13556},"population":122688},{"name":"Alandur","cou_name_en":"India","coordinates":{"lon":80.20611,"lat":13.0025},"population":153775},{"name":"Alanya","cou_name_en":"Turkey","coordinates":{"lon":31.99982,"lat":36.54375},"population":112969},{"name":"Alappuzha","cou_name_en":"India","coordinates":{"lon":76.3264,"lat":9.49004},"population":240991},{"name":"Albacete","cou_name_en":"Spain","coordinates":{"lon":-1.85643,"lat":38.99424},"population":169716},{"name":"Alberton","cou_name_en":"South Africa","coordinates":{"lon":28.12225,"lat":-26.26786},"population":121536},{"name":"Albuquerque","cou_name_en":"United States","coordinates":{"lon":-106.65114,"lat":35.08449},"population":559121},{"name":"Alcal\u00e1 de Henares","cou_name_en":"Spain","coordinates":{"lon":-3.35996,"lat":40.48205},"population":204574},{"name":"Alchevsk","cou_name_en":"Ukraine","coordinates":{"lon":38.81669,"lat":48.46893},"population":106062},{"name":"Alcobendas","cou_name_en":"Spain","coordinates":{"lon":-3.64197,"lat":40.54746},"population":107514},{"name":"Alcorc\u00f3n","cou_name_en":"Spain","coordinates":{"lon":-3.82487,"lat":40.34582},"population":167967},{"name":"Aleppo","cou_name_en":"Syrian Arab Republic","coordinates":{"lon":37.16117,"lat":36.20124},"population":2098210},{"name":"Alexandria","cou_name_en":"United States","coordinates":{"lon":-77.04692,"lat":38.80484},"population":159467},{"name":"Alexandria","cou_name_en":"Egypt","coordinates":{"lon":29.91582,"lat":31.20176},"population":5263542},{"name":"Algeciras","cou_name_en":"Spain","coordinates":{"lon":-5.45051,"lat":36.13326},"population":116209},{"name":"Algiers","cou_name_en":"Algeria","coordinates":{"lon":3.08746,"lat":36.73225},"population":2364230},{"name":"Alhambra","cou_name_en":"United States","coordinates":{"lon":-112.13432,"lat":33.49838},"population":127764},{"name":"Alicante","cou_name_en":"Spain","coordinates":{"lon":-0.48149,"lat":38.34517},"population":334757},{"name":"Allentown","cou_name_en":"United States","coordinates":{"lon":-75.49018,"lat":40.60843},"population":120207},{"name":"Almaty","cou_name_en":"Kazakhstan","coordinates":{"lon":76.91667,"lat":43.25},"population":1977011},{"name":"Almere Stad","cou_name_en":"Netherlands","coordinates":{"lon":5.21413,"lat":52.37025},"population":176432},{"name":"Almer\u00eda","cou_name_en":"Spain","coordinates":{"lon":-2.45974,"lat":36.83814},"population":188810},{"name":"Alor Setar","cou_name_en":"Malaysia","coordinates":{"lon":100.36014,"lat":6.12104},"population":417800},{"name":"Altay","cou_name_en":"China","coordinates":{"lon":88.13361,"lat":47.84864},"population":190064},{"name":"Alto Barinas","cou_name_en":"Venezuela, Bolivarian Rep. of","coordinates":{"lon":-70.2261,"lat":8.5931},"population":284289},{"name":"Alto Hospicio","cou_name_en":"Chile","coordinates":{"lon":-70.1049,"lat":-20.26871},"population":108375},{"name":"Altona","cou_name_en":"Germany","coordinates":{"lon":9.93333,"lat":53.55},"population":250192},{"name":"Alvorada","cou_name_en":"Brazil","coordinates":{"lon":-51.0781,"lat":-29.9904},"population":211352},{"name":"Alwar","cou_name_en":"India","coordinates":{"lon":76.625,"lat":27.56246},"population":283228},{"name":"Al\u012bgarh","cou_name_en":"India","coordinates":{"lon":78.07464,"lat":27.88145},"population":753207},{"name":"Al\u2019met\u2019yevsk","cou_name_en":"Russian Federation","coordinates":{"lon":52.3154,"lat":54.90442},"population":140437},{"name":"Amadora","cou_name_en":"Portugal","coordinates":{"lon":-9.23083,"lat":38.75382},"population":178858},{"name":"Amagasaki","cou_name_en":"Japan","coordinates":{"lon":135.41667,"lat":34.71667},"population":442173},{"name":"Amaigbo","cou_name_en":"Nigeria","coordinates":{"lon":7.83829,"lat":5.78917},"population":127300},{"name":"Amanfrom","cou_name_en":"Ghana","coordinates":{"lon":-0.39827,"lat":5.53532},"population":119467},{"name":"Amaravati","cou_name_en":"India","coordinates":{"lon":80.516,"lat":16.514},"population":103000},{"name":"Amarillo","cou_name_en":"United States","coordinates":{"lon":-101.8313,"lat":35.222},"population":198645},{"name":"Amarn\u0101th","cou_name_en":"India","coordinates":{"lon":73.16667,"lat":19.2},"population":217780},{"name":"Amasya","cou_name_en":"Turkey","coordinates":{"lon":35.83306,"lat":40.65333},"population":114921},{"name":"Ambato","cou_name_en":"Ecuador","coordinates":{"lon":-78.61675,"lat":-1.24908},"population":387309},{"name":"Ambatt\u016br","cou_name_en":"India","coordinates":{"lon":80.16152,"lat":13.09818},"population":341049},{"name":"Ambon","cou_name_en":"Indonesia","coordinates":{"lon":128.18333,"lat":-3.69583},"population":347288},{"name":"Ambur","cou_name_en":"India","coordinates":{"lon":78.71644,"lat":12.79163},"population":109873},{"name":"Amb\u0101la","cou_name_en":"India","coordinates":{"lon":76.79782,"lat":30.36099},"population":146787},{"name":"Americana","cou_name_en":"Brazil","coordinates":{"lon":-47.33139,"lat":-22.73917},"population":196022},{"name":"Amersfoort","cou_name_en":"Netherlands","coordinates":{"lon":5.3875,"lat":52.155},"population":139914},{"name":"Amherst","cou_name_en":"United States","coordinates":{"lon":-78.79976,"lat":42.97839},"population":122366},{"name":"Amiens","cou_name_en":"France","coordinates":{"lon":2.3,"lat":49.9},"population":143086},{"name":"Amman","cou_name_en":"Jordan","coordinates":{"lon":35.94503,"lat":31.95522},"population":1275857},{"name":"Ampang","cou_name_en":"Malaysia","coordinates":{"lon":101.76667,"lat":3.15},"population":126285},{"name":"Amritsar","cou_name_en":"India","coordinates":{"lon":74.87534,"lat":31.62234},"population":1092450},{"name":"Amroha","cou_name_en":"India","coordinates":{"lon":78.46984,"lat":28.90314},"population":176253},{"name":"Amr\u0101vati","cou_name_en":"India","coordinates":{"lon":77.75,"lat":20.93333},"population":603837},{"name":"Amsterdam","cou_name_en":"Netherlands","coordinates":{"lon":4.88969,"lat":52.37403},"population":741636},{"name":"An Nuh\u016bd","cou_name_en":"Sudan, The Republic of","coordinates":{"lon":28.43333,"lat":12.7},"population":108008},{"name":"An Nu\u2018m\u0101n\u012byah","cou_name_en":"Iraq","coordinates":{"lon":45.41293,"lat":32.55621},"population":110000},{"name":"Anaco","cou_name_en":"Venezuela, Bolivarian Rep. of","coordinates":{"lon":-64.46428,"lat":9.42958},"population":139397},{"name":"Anaheim","cou_name_en":"United States","coordinates":{"lon":-117.9145,"lat":33.83529},"population":350742},{"name":"Anand","cou_name_en":"India","coordinates":{"lon":72.9552,"lat":22.55251},"population":138009},{"name":"Ananindeua","cou_name_en":"Brazil","coordinates":{"lon":-48.37222,"lat":-1.36556},"population":433956},{"name":"Anantapur","cou_name_en":"India","coordinates":{"lon":77.60813,"lat":14.67784},"population":240442},{"name":"Anbu","cou_name_en":"China","coordinates":{"lon":116.68092,"lat":23.44895},"population":162964},{"name":"Anchorage","cou_name_en":"United States","coordinates":{"lon":-149.90028,"lat":61.21806},"population":291247},{"name":"Anda","cou_name_en":"China","coordinates":{"lon":125.30161,"lat":46.44867},"population":181271},{"name":"Anderlecht","cou_name_en":"Belgium","coordinates":{"lon":4.31454,"lat":50.83619},"population":160553},{"name":"Andijon","cou_name_en":"Uzbekistan","coordinates":{"lon":72.34424,"lat":40.78206},"population":447800},{"name":"Andong","cou_name_en":"Korea, Republic of","coordinates":{"lon":128.72275,"lat":36.56636},"population":158765},{"name":"Angarsk","cou_name_en":"Russian Federation","coordinates":{"lon":103.88639,"lat":52.53667},"population":243158},{"name":"Angeles City","cou_name_en":"Philippines","coordinates":{"lon":120.58333,"lat":15.15},"population":299391},{"name":"Angers","cou_name_en":"France","coordinates":{"lon":-0.55202,"lat":47.47156},"population":168279},{"name":"Angoche","cou_name_en":"Mozambique","coordinates":{"lon":39.90861,"lat":-16.2325},"population":104540},{"name":"Angra dos Reis","cou_name_en":"Brazil","coordinates":{"lon":-44.31806,"lat":-23.00667},"population":153635},{"name":"Angren","cou_name_en":"Uzbekistan","coordinates":{"lon":70.14361,"lat":41.01667},"population":191300},{"name":"Anj\u014d","cou_name_en":"Japan","coordinates":{"lon":137.08054,"lat":34.95828},"population":188693},{"name":"Ankang","cou_name_en":"China","coordinates":{"lon":109.01722,"lat":32.68},"population":870126},{"name":"Ankara","cou_name_en":"Turkey","coordinates":{"lon":32.85427,"lat":39.91987},"population":3517182},{"name":"Anliu","cou_name_en":"China","coordinates":{"lon":115.67953,"lat":23.69824},"population":115560},{"name":"Ann Arbor","cou_name_en":"United States","coordinates":{"lon":-83.74088,"lat":42.27756},"population":117070},{"name":"Annaba","cou_name_en":"Algeria","coordinates":{"lon":7.76667,"lat":36.9},"population":342703},{"name":"Anning","cou_name_en":"China","coordinates":{"lon":102.48496,"lat":24.92271},"population":106795},{"name":"Anqing","cou_name_en":"China","coordinates":{"lon":117.04723,"lat":30.51365},"population":804493},{"name":"Anqiu","cou_name_en":"China","coordinates":{"lon":119.1925,"lat":36.43417},"population":364208},{"name":"Ansan-si","cou_name_en":"Korea, Republic of","coordinates":{"lon":126.82194,"lat":37.32361},"population":716785},{"name":"Anshan","cou_name_en":"China","coordinates":{"lon":122.99,"lat":41.12361},"population":1450000},{"name":"Anshun","cou_name_en":"China","coordinates":{"lon":105.93333,"lat":26.25},"population":765313},{"name":"Antakya","cou_name_en":"Turkey","coordinates":{"lon":36.15722,"lat":36.20655},"population":210000},{"name":"Antalya","cou_name_en":"Turkey","coordinates":{"lon":30.69556,"lat":36.90812},"population":1344000},{"name":"Antananarivo","cou_name_en":"Madagascar","coordinates":{"lon":47.53613,"lat":-18.91368},"population":1349501},{"name":"Antioch","cou_name_en":"United States","coordinates":{"lon":-121.80579,"lat":38.00492},"population":110542},{"name":"Antipolo","cou_name_en":"Philippines","coordinates":{"lon":121.12251,"lat":14.62578},"population":549543},{"name":"Antofagasta","cou_name_en":"Chile","coordinates":{"lon":-70.3954,"lat":-23.65236},"population":352638},{"name":"Antsirabe","cou_name_en":"Madagascar","coordinates":{"lon":47.03333,"lat":-19.86586},"population":260907},{"name":"Antsiranana","cou_name_en":"Madagascar","coordinates":{"lon":49.29188,"lat":-12.31732},"population":136959},{"name":"Antwerpen","cou_name_en":"Belgium","coordinates":{"lon":4.40026,"lat":51.22047},"population":529247},{"name":"Anyama","cou_name_en":"C\u00f4te d'Ivoire","coordinates":{"lon":-4.05183,"lat":5.49462},"population":133905},{"name":"Anyang","cou_name_en":"China","coordinates":{"lon":114.38278,"lat":36.096},"population":1146839},{"name":"Anyang-si","cou_name_en":"Korea, Republic of","coordinates":{"lon":126.92694,"lat":37.3925},"population":595644},{"name":"An\u00e1polis","cou_name_en":"Brazil","coordinates":{"lon":-48.95278,"lat":-16.32667},"population":319587},{"name":"Aomori","cou_name_en":"Japan","coordinates":{"lon":140.73333,"lat":40.81667},"population":298394},{"name":"Aparecida de Goi\u00e2nia","cou_name_en":"Brazil","coordinates":{"lon":-49.24389,"lat":-16.82333},"population":510770},{"name":"Apeldoorn","cou_name_en":"Netherlands","coordinates":{"lon":5.96944,"lat":52.21},"population":136670},{"name":"Apopa","cou_name_en":"El Salvador","coordinates":{"lon":-89.17917,"lat":13.80722},"population":112158},{"name":"Apucarana","cou_name_en":"Brazil","coordinates":{"lon":-51.46083,"lat":-23.55083},"population":107085},{"name":"Ar Ramth\u0101","cou_name_en":"Jordan","coordinates":{"lon":36.00816,"lat":32.55873},"population":155693},{"name":"Ar Raqqah","cou_name_en":"Syrian Arab Republic","coordinates":{"lon":39.00788,"lat":35.95283},"population":531952},{"name":"Ar Rayy\u0101n","cou_name_en":"Qatar","coordinates":{"lon":51.42444,"lat":25.29194},"population":272465},{"name":"Ar Rif\u0101\u2018","cou_name_en":"Bahrain","coordinates":{"lon":50.555,"lat":26.13},"population":195606},{"name":"Aracaju","cou_name_en":"Brazil","coordinates":{"lon":-37.07167,"lat":-10.91111},"population":664908},{"name":"Arad","cou_name_en":"Romania","coordinates":{"lon":21.31667,"lat":46.18333},"population":169065},{"name":"Aragua\u00edna","cou_name_en":"Brazil","coordinates":{"lon":-48.20722,"lat":-7.19111},"population":105019},{"name":"Aral","cou_name_en":"China","coordinates":{"lon":81.26566,"lat":40.54184},"population":260000},{"name":"Arapiraca","cou_name_en":"Brazil","coordinates":{"lon":-36.66111,"lat":-9.7525},"population":166562},{"name":"Arar","cou_name_en":"Saudi Arabia","coordinates":{"lon":41.03808,"lat":30.97531},"population":148540},{"name":"Araraquara","cou_name_en":"Brazil","coordinates":{"lon":-48.17556,"lat":-21.79444},"population":168468},{"name":"Araras","cou_name_en":"Brazil","coordinates":{"lon":-47.38417,"lat":-22.35694},"population":107463},{"name":"Araruama","cou_name_en":"Brazil","coordinates":{"lon":-42.34306,"lat":-22.87278},"population":109637},{"name":"Arauc\u00e1ria","cou_name_en":"Brazil","coordinates":{"lon":-49.41028,"lat":-25.59306},"population":111302},{"name":"Araure","cou_name_en":"Venezuela, Bolivarian Rep. of","coordinates":{"lon":-69.23851,"lat":9.58144},"population":181820},{"name":"Ara\u00e7atuba","cou_name_en":"Brazil","coordinates":{"lon":-50.43278,"lat":-21.20889},"population":170024},{"name":"Arba Minch","cou_name_en":"Ethiopia","coordinates":{"lon":37.55,"lat":6.03333},"population":201000},{"name":"Archway","cou_name_en":"United Kingdom","coordinates":{"lon":-0.13415,"lat":51.56733},"population":215667},{"name":"Ardab\u012bl","cou_name_en":"Iran, Islamic Rep. of","coordinates":{"lon":48.2933,"lat":38.2498},"population":410753},{"name":"Arequipa","cou_name_en":"Peru","coordinates":{"lon":-71.535,"lat":-16.39889},"population":1008290},{"name":"Arezzo","cou_name_en":"Italy","coordinates":{"lon":11.88068,"lat":43.46276},"population":100734},{"name":"Arganzuela","cou_name_en":"Spain","coordinates":{"lon":-3.69618,"lat":40.40021},"population":148797},{"name":"Argenteuil","cou_name_en":"France","coordinates":{"lon":2.24744,"lat":48.94788},"population":101475},{"name":"Arica","cou_name_en":"Chile","coordinates":{"lon":-70.29792,"lat":-18.4746},"population":185999},{"name":"Arjawinangun","cou_name_en":"Indonesia","coordinates":{"lon":108.41028,"lat":-6.64528},"population":105845},{"name":"Arkhangel\u2019sk","cou_name_en":"Russian Federation","coordinates":{"lon":40.55291,"lat":64.54717},"population":349742},{"name":"Arlington","cou_name_en":"United States","coordinates":{"lon":-77.10428,"lat":38.88101},"population":207627},{"name":"Arlington","cou_name_en":"United States","coordinates":{"lon":-97.10807,"lat":32.73569},"population":388125},{"name":"Arlit","cou_name_en":"Niger","coordinates":{"lon":7.38528,"lat":18.73694},"population":106448},{"name":"Armavir","cou_name_en":"Russian Federation","coordinates":{"lon":41.1234,"lat":44.9892},"population":199548},{"name":"Armenia","cou_name_en":"Colombia","coordinates":{"lon":-75.68111,"lat":4.53389},"population":304314},{"name":"Arnavutk\u00f6y","cou_name_en":"Turkey","coordinates":{"lon":28.7402,"lat":41.18355},"population":198165},{"name":"Arnhem","cou_name_en":"Netherlands","coordinates":{"lon":5.91111,"lat":51.98},"population":141674},{"name":"Arrah","cou_name_en":"India","coordinates":{"lon":84.66335,"lat":25.55629},"population":223676},{"name":"Arroyo Naranjo","cou_name_en":"Cuba","coordinates":{"lon":-82.37703,"lat":23.03811},"population":210053},{"name":"Art\u00ebm","cou_name_en":"Russian Federation","coordinates":{"lon":132.18887,"lat":43.3595},"population":102300},{"name":"Arusha","cou_name_en":"Tanzania, United Republic of","coordinates":{"lon":36.68333,"lat":-3.36667},"population":617631},{"name":"Arvada","cou_name_en":"United States","coordinates":{"lon":-105.08748,"lat":39.80276},"population":115368},{"name":"Arzamas","cou_name_en":"Russian Federation","coordinates":{"lon":43.8381,"lat":55.39563},"population":109479},{"name":"Ar\u0101k","cou_name_en":"Iran, Islamic Rep. of","coordinates":{"lon":49.69809,"lat":34.09493},"population":503647},{"name":"Ar\u012bsh","cou_name_en":"Egypt","coordinates":{"lon":33.79844,"lat":31.13159},"population":199243},{"name":"As Sal\u0163","cou_name_en":"Jordan","coordinates":{"lon":35.72722,"lat":32.03917},"population":107874},{"name":"As Samawah","cou_name_en":"Iraq","coordinates":{"lon":45.2944,"lat":31.33198},"population":152890},{"name":"As Sinbill\u0101wayn","cou_name_en":"Egypt","coordinates":{"lon":31.46275,"lat":30.88251},"population":124020},{"name":"As Sulaym\u0101n\u012byah","cou_name_en":"Iraq","coordinates":{"lon":45.4329,"lat":35.56496},"population":878146},{"name":"As Suwayq","cou_name_en":"Oman","coordinates":{"lon":57.43861,"lat":23.84944},"population":107143},{"name":"As S\u0101lim\u012byah","cou_name_en":"Kuwait","coordinates":{"lon":48.07611,"lat":29.33389},"population":147649},{"name":"Asahikawa","cou_name_en":"Japan","coordinates":{"lon":142.36489,"lat":43.77063},"population":333530},{"name":"Asaka","cou_name_en":"Japan","coordinates":{"lon":139.60194,"lat":35.80472},"population":128058},{"name":"Ashaiman","cou_name_en":"Ghana","coordinates":{"lon":-0.03484,"lat":5.69951},"population":190972},{"name":"Ashdod","cou_name_en":"Israel","coordinates":{"lon":34.64966,"lat":31.79213},"population":226838},{"name":"Ashgabat","cou_name_en":"Turkmenistan","coordinates":{"lon":58.38333,"lat":37.95},"population":727700},{"name":"Ashikaga","cou_name_en":"Japan","coordinates":{"lon":139.45,"lat":36.33333},"population":143653},{"name":"Ashkelon","cou_name_en":"Israel","coordinates":{"lon":34.57149,"lat":31.66926},"population":144073},{"name":"Ashm\u016bn","cou_name_en":"Egypt","coordinates":{"lon":30.97641,"lat":30.29735},"population":124483},{"name":"Ashoknagar Kalyangarh","cou_name_en":"India","coordinates":{"lon":88.63701,"lat":22.86416},"population":111475},{"name":"Asmara","cou_name_en":"Eritrea","coordinates":{"lon":38.93184,"lat":15.33805},"population":563930},{"name":"Assis","cou_name_en":"Brazil","coordinates":{"lon":-50.41222,"lat":-22.66167},"population":105087},{"name":"Assiut","cou_name_en":"Egypt","coordinates":{"lon":31.18368,"lat":27.18096},"population":528669},{"name":"Astana","cou_name_en":"Kazakhstan","coordinates":{"lon":71.44598,"lat":51.1801},"population":345604},{"name":"Astanajapura","cou_name_en":"Indonesia","coordinates":{"lon":108.6311,"lat":-6.8017},"population":148047},{"name":"Astoria","cou_name_en":"United States","coordinates":{"lon":-73.93014,"lat":40.77205},"population":150165},{"name":"Astrakhan","cou_name_en":"Russian Federation","coordinates":{"lon":48.04076,"lat":46.34968},"population":533925},{"name":"Asunci\u00f3n","cou_name_en":"Paraguay","coordinates":{"lon":-57.647,"lat":-25.28646},"population":1482200},{"name":"Asw\u0101n","cou_name_en":"Egypt","coordinates":{"lon":32.89942,"lat":24.09082},"population":379774},{"name":"Atani","cou_name_en":"Nigeria","coordinates":{"lon":6.74768,"lat":6.01277},"population":230000},{"name":"Ata\u015fehir","cou_name_en":"Turkey","coordinates":{"lon":29.1167,"lat":40.9833},"population":361615},{"name":"Atbara","cou_name_en":"Sudan, The Republic of","coordinates":{"lon":33.98638,"lat":17.70217},"population":107930},{"name":"Athens","cou_name_en":"United States","coordinates":{"lon":-83.37794,"lat":33.96095},"population":127315},{"name":"Athens","cou_name_en":"Greece","coordinates":{"lon":23.72784,"lat":37.98376},"population":664046},{"name":"Atibaia","cou_name_en":"Brazil","coordinates":{"lon":-46.55028,"lat":-23.11694},"population":144088},{"name":"Atlanta","cou_name_en":"United States","coordinates":{"lon":-84.38798,"lat":33.749},"population":463878},{"name":"Atsiaman","cou_name_en":"Ghana","coordinates":{"lon":-0.32824,"lat":5.69775},"population":202932},{"name":"Atsugi","cou_name_en":"Japan","coordinates":{"lon":139.36931,"lat":35.44272},"population":223960},{"name":"Atyrau","cou_name_en":"Kazakhstan","coordinates":{"lon":51.88333,"lat":47.11667},"population":290700},{"name":"Auckland","cou_name_en":"New Zealand","coordinates":{"lon":174.76349,"lat":-36.84853},"population":417910},{"name":"Augsburg","cou_name_en":"Germany","coordinates":{"lon":10.89851,"lat":48.37154},"population":259196},{"name":"Aurora","cou_name_en":"United States","coordinates":{"lon":-88.32007,"lat":41.76058},"population":200661},{"name":"Aurora","cou_name_en":"United States","coordinates":{"lon":-104.83192,"lat":39.72943},"population":359407},{"name":"Austin","cou_name_en":"United States","coordinates":{"lon":-97.74306,"lat":30.26715},"population":931830},{"name":"Awasa","cou_name_en":"Ethiopia","coordinates":{"lon":38.47635,"lat":7.06205},"population":422200},{"name":"Awka","cou_name_en":"Nigeria","coordinates":{"lon":7.07199,"lat":6.21269},"population":167738},{"name":"Ayacucho","cou_name_en":"Peru","coordinates":{"lon":-74.22321,"lat":-13.15878},"population":140033},{"name":"Ayd\u0131n","cou_name_en":"Turkey","coordinates":{"lon":27.83963,"lat":37.84501},"population":163022},{"name":"Az Zubayr","cou_name_en":"Iraq","coordinates":{"lon":47.70175,"lat":30.39213},"population":122676},{"name":"Az Zulf\u012b","cou_name_en":"Saudi Arabia","coordinates":{"lon":44.81542,"lat":26.29945},"population":125000},{"name":"Az Z\u0101w\u012byah","cou_name_en":"Libyan Arab Jamahiriya","coordinates":{"lon":12.72764,"lat":32.7571},"population":200000},{"name":"Azamgarh","cou_name_en":"India","coordinates":{"lon":83.18358,"lat":26.06832},"population":116644},{"name":"Azare","cou_name_en":"Nigeria","coordinates":{"lon":10.19069,"lat":11.67478},"population":105687},{"name":"Azcapotzalco","cou_name_en":"Mexico","coordinates":{"lon":-99.18594,"lat":19.48698},"population":414711},{"name":"A\u00efn Be\u00efda","cou_name_en":"Algeria","coordinates":{"lon":7.39278,"lat":35.79639},"population":116064},{"name":"A\u011fr\u0131","cou_name_en":"Turkey","coordinates":{"lon":43.04015,"lat":39.71467},"population":120390},{"name":"Bab Ezzouar","cou_name_en":"Algeria","coordinates":{"lon":3.18291,"lat":36.72615},"population":275630},{"name":"Babruysk","cou_name_en":"Belarus","coordinates":{"lon":29.2214,"lat":53.1384},"population":209675},{"name":"Bachuan","cou_name_en":"China","coordinates":{"lon":106.05046,"lat":29.84863},"population":208520},{"name":"Bacolod City","cou_name_en":"Philippines","coordinates":{"lon":122.95,"lat":10.66667},"population":454898},{"name":"Bacoor","cou_name_en":"Philippines","coordinates":{"lon":120.93851,"lat":14.45896},"population":356974},{"name":"Bac\u0103u","cou_name_en":"Romania","coordinates":{"lon":26.91384,"lat":46.56718},"population":171396},{"name":"Badajoz","cou_name_en":"Spain","coordinates":{"lon":-6.97061,"lat":38.87789},"population":148334},{"name":"Badalona","cou_name_en":"Spain","coordinates":{"lon":2.24741,"lat":41.45004},"population":219547},{"name":"Bade","cou_name_en":"Taiwan, China","coordinates":{"lon":121.28372,"lat":24.92981},"population":209148},{"name":"Badlapur","cou_name_en":"India","coordinates":{"lon":73.26553,"lat":19.15516},"population":104636},{"name":"Bafoussam","cou_name_en":"Cameroon","coordinates":{"lon":10.41759,"lat":5.47775},"population":373268},{"name":"Bagaha","cou_name_en":"India","coordinates":{"lon":84.09003,"lat":27.09918},"population":103855},{"name":"Bagerhat","cou_name_en":"Bangladesh","coordinates":{"lon":89.79123,"lat":22.65657},"population":266388},{"name":"Baghdad","cou_name_en":"Iraq","coordinates":{"lon":44.40088,"lat":33.34058},"population":7216000},{"name":"Baghl\u0101n","cou_name_en":"Afghanistan","coordinates":{"lon":68.70829,"lat":36.13068},"population":108449},{"name":"Bago","cou_name_en":"Myanmar","coordinates":{"lon":96.48135,"lat":17.33521},"population":244376},{"name":"Bago City","cou_name_en":"Philippines","coordinates":{"lon":122.83333,"lat":10.53333},"population":191210},{"name":"Bagong Silangan","cou_name_en":"Philippines","coordinates":{"lon":121.108,"lat":14.706},"population":106886},{"name":"Baguio","cou_name_en":"Philippines","coordinates":{"lon":120.59306,"lat":16.41639},"population":272714},{"name":"Baharampur","cou_name_en":"India","coordinates":{"lon":88.25155,"lat":24.10473},"population":180547},{"name":"Bahawalnagar","cou_name_en":"Pakistan","coordinates":{"lon":73.39083,"lat":30.55083},"population":126700},{"name":"Bahawalnagar","cou_name_en":"Pakistan","coordinates":{"lon":73.25272,"lat":29.99835},"population":126617},{"name":"Bahawalpur","cou_name_en":"Pakistan","coordinates":{"lon":71.6752,"lat":29.39779},"population":552607},{"name":"Bahir Dar","cou_name_en":"Ethiopia","coordinates":{"lon":37.39077,"lat":11.59364},"population":350000},{"name":"Bahraigh","cou_name_en":"India","coordinates":{"lon":81.59474,"lat":27.57429},"population":182218},{"name":"Bah\u00e7elievler","cou_name_en":"Turkey","coordinates":{"lon":28.8598,"lat":41.00231},"population":576799},{"name":"Bah\u00eda Blanca","cou_name_en":"Argentina","coordinates":{"lon":-62.26545,"lat":-38.7176},"population":299101},{"name":"Bah\u0101durgarh","cou_name_en":"India","coordinates":{"lon":76.93555,"lat":28.69287},"population":153613},{"name":"Baia Mare","cou_name_en":"Romania","coordinates":{"lon":23.56808,"lat":47.65729},"population":136553},{"name":"Baicheng","cou_name_en":"China","coordinates":{"lon":122.83302,"lat":45.61751},"population":316970},{"name":"Baidoa","cou_name_en":"Somalia","coordinates":{"lon":43.6498,"lat":3.11383},"population":129839},{"name":"Baidyab\u0101ti","cou_name_en":"India","coordinates":{"lon":88.32586,"lat":22.78498},"population":115504},{"name":"Baise","cou_name_en":"China","coordinates":{"lon":106.62684,"lat":23.89013},"population":686078},{"name":"Baisha","cou_name_en":"China","coordinates":{"lon":106.1189,"lat":29.06226},"population":115761},{"name":"Baishan","cou_name_en":"China","coordinates":{"lon":126.41965,"lat":41.93853},"population":183880},{"name":"Baiyin","cou_name_en":"China","coordinates":{"lon":104.17023,"lat":36.54696},"population":294400},{"name":"Bakersfield","cou_name_en":"United States","coordinates":{"lon":-119.01871,"lat":35.37329},"population":373640},{"name":"Baku","cou_name_en":"Azerbaijan","coordinates":{"lon":49.89201,"lat":40.37767},"population":1116513},{"name":"Bakwa","cou_name_en":"Congo, Democratic Republic of the","coordinates":{"lon":27.39527,"lat":4.1263},"population":100575},{"name":"Balakovo","cou_name_en":"Russian Federation","coordinates":{"lon":47.8007,"lat":52.02782},"population":199572},{"name":"Balashikha","cou_name_en":"Russian Federation","coordinates":{"lon":37.94794,"lat":55.79479},"population":150103},{"name":"Balasore","cou_name_en":"India","coordinates":{"lon":86.93348,"lat":21.49266},"population":114321},{"name":"Balikpapan","cou_name_en":"Indonesia","coordinates":{"lon":116.82887,"lat":-1.26753},"population":695287},{"name":"Baliuag","cou_name_en":"Philippines","coordinates":{"lon":120.89694,"lat":14.95472},"population":135679},{"name":"Balkh","cou_name_en":"Afghanistan","coordinates":{"lon":66.8972,"lat":36.75635},"population":114883},{"name":"Ballarat","cou_name_en":"Australia","coordinates":{"lon":143.84957,"lat":-37.56622},"population":116201},{"name":"Baltimore","cou_name_en":"United States","coordinates":{"lon":-76.61219,"lat":39.29038},"population":576498},{"name":"Balvanera","cou_name_en":"Argentina","coordinates":{"lon":-58.39766,"lat":-34.61032},"population":152198},{"name":"Bal\u0131kesir","cou_name_en":"Turkey","coordinates":{"lon":27.88611,"lat":39.64917},"population":238151},{"name":"Bama","cou_name_en":"Nigeria","coordinates":{"lon":13.68952,"lat":11.52134},"population":118121},{"name":"Bamako","cou_name_en":"Mali","coordinates":{"lon":-8.0,"lat":12.65},"population":4227569},{"name":"Bamenda","cou_name_en":"Cameroon","coordinates":{"lon":10.14597,"lat":5.9597},"population":420445},{"name":"Banan","cou_name_en":"China","coordinates":{"lon":106.54,"lat":29.37861},"population":508703},{"name":"Banda Aceh","cou_name_en":"Indonesia","coordinates":{"lon":95.33333,"lat":5.54167},"population":255029},{"name":"Bandar Abbas","cou_name_en":"Iran, Islamic Rep. of","coordinates":{"lon":56.2808,"lat":27.1865},"population":352173},{"name":"Bandar Lampung","cou_name_en":"Indonesia","coordinates":{"lon":105.26111,"lat":-5.42917},"population":1166066},{"name":"Bandar-e Anzal\u012b","cou_name_en":"Iran, Islamic Rep. of","coordinates":{"lon":49.45785,"lat":37.47318},"population":110826},{"name":"Bandundu Province","cou_name_en":"Congo, Democratic Republic of the","coordinates":{"lon":17.38063,"lat":-3.31687},"population":202904},{"name":"Bandung","cou_name_en":"Indonesia","coordinates":{"lon":107.60694,"lat":-6.92222},"population":2444160},{"name":"Band\u0131rma","cou_name_en":"Turkey","coordinates":{"lon":27.97667,"lat":40.35222},"population":107631},{"name":"Banfora","cou_name_en":"Burkina Faso","coordinates":{"lon":-4.76667,"lat":10.63333},"population":117452},{"name":"Bangaon","cou_name_en":"India","coordinates":{"lon":88.83084,"lat":23.04553},"population":111693},{"name":"Bangil","cou_name_en":"Indonesia","coordinates":{"lon":112.8186,"lat":-7.59939},"population":120551},{"name":"Bangkok","cou_name_en":"Thailand","coordinates":{"lon":100.50144,"lat":13.75398},"population":5104476},{"name":"Bangui","cou_name_en":"Central African Republic","coordinates":{"lon":18.55496,"lat":4.36122},"population":812407},{"name":"Banh\u0101","cou_name_en":"Egypt","coordinates":{"lon":31.1842,"lat":30.45977},"population":182254},{"name":"Banja Luka","cou_name_en":"Bosnia and Herzegovina","coordinates":{"lon":17.19386,"lat":44.77842},"population":221106},{"name":"Banjar","cou_name_en":"Indonesia","coordinates":{"lon":107.4313,"lat":-7.1955},"population":200970},{"name":"Banjaran","cou_name_en":"Indonesia","coordinates":{"lon":107.58778,"lat":-7.04528},"population":164952},{"name":"Banjarmasin","cou_name_en":"Indonesia","coordinates":{"lon":114.59075,"lat":-3.31987},"population":657663},{"name":"Banqiao","cou_name_en":"Taiwan, China","coordinates":{"lon":121.46719,"lat":25.01427},"population":543342},{"name":"Banyuwangi","cou_name_en":"Indonesia","coordinates":{"lon":114.35755,"lat":-8.2325},"population":117558},{"name":"Ban\u012b Maz\u0101r","cou_name_en":"Egypt","coordinates":{"lon":30.80526,"lat":28.49456},"population":115759},{"name":"Ban\u012b Suwayf","cou_name_en":"Egypt","coordinates":{"lon":31.09785,"lat":29.07441},"population":273151},{"name":"Baoding","cou_name_en":"China","coordinates":{"lon":115.46246,"lat":38.87288},"population":2739887},{"name":"Baoji","cou_name_en":"China","coordinates":{"lon":107.23705,"lat":34.36775},"population":1437802},{"name":"Baoshan","cou_name_en":"China","coordinates":{"lon":131.39318,"lat":46.57472},"population":123791},{"name":"Baoshan","cou_name_en":"China","coordinates":{"lon":99.16366,"lat":25.11626},"population":935618},{"name":"Baotou","cou_name_en":"China","coordinates":{"lon":109.84389,"lat":40.6516},"population":2150000},{"name":"Baqubah","cou_name_en":"Iraq","coordinates":{"lon":44.60518,"lat":33.75403},"population":152550},{"name":"Baraki","cou_name_en":"Algeria","coordinates":{"lon":3.09606,"lat":36.66655},"population":105402},{"name":"Baranagar","cou_name_en":"India","coordinates":{"lon":88.37727,"lat":22.64132},"population":260072},{"name":"Baranovichi","cou_name_en":"Belarus","coordinates":{"lon":26.00774,"lat":53.13253},"population":179000},{"name":"Barbacena","cou_name_en":"Brazil","coordinates":{"lon":-43.77361,"lat":-21.22583},"population":122211},{"name":"Barcelona","cou_name_en":"Spain","coordinates":{"lon":2.15899,"lat":41.38879},"population":1620343},{"name":"Barcelona","cou_name_en":"Venezuela, Bolivarian Rep. of","coordinates":{"lon":-64.68618,"lat":10.13625},"population":815141},{"name":"Barddham\u0101n","cou_name_en":"India","coordinates":{"lon":87.85691,"lat":23.25572},"population":301725},{"name":"Bareilly","cou_name_en":"India","coordinates":{"lon":79.43167,"lat":28.36678},"population":745435},{"name":"Bari","cou_name_en":"Italy","coordinates":{"lon":16.86982,"lat":41.12066},"population":316491},{"name":"Barinas","cou_name_en":"Venezuela, Bolivarian Rep. of","coordinates":{"lon":-70.20749,"lat":8.62261},"population":397279},{"name":"Barishal","cou_name_en":"Bangladesh","coordinates":{"lon":90.37013,"lat":22.70497},"population":202242},{"name":"Barnaul","cou_name_en":"Russian Federation","coordinates":{"lon":83.76361,"lat":53.36056},"population":632372},{"name":"Barn\u0101la","cou_name_en":"India","coordinates":{"lon":75.5487,"lat":30.37451},"population":105016},{"name":"Barquisimeto","cou_name_en":"Venezuela, Bolivarian Rep. of","coordinates":{"lon":-69.35703,"lat":10.0647},"population":1240714},{"name":"Barra Mansa","cou_name_en":"Brazil","coordinates":{"lon":-44.17139,"lat":-22.54417},"population":164052},{"name":"Barrancabermeja","cou_name_en":"Colombia","coordinates":{"lon":-73.85472,"lat":7.06528},"population":191403},{"name":"Barranquilla","cou_name_en":"Colombia","coordinates":{"lon":-74.78132,"lat":10.96854},"population":1206319},{"name":"Barreiras","cou_name_en":"Brazil","coordinates":{"lon":-44.99,"lat":-12.15278},"population":158292},{"name":"Barretos","cou_name_en":"Brazil","coordinates":{"lon":-48.56778,"lat":-20.55722},"population":101220},{"name":"Barrie","cou_name_en":"Canada","coordinates":{"lon":-79.66634,"lat":44.40011},"population":141434},{"name":"Barueri","cou_name_en":"Brazil","coordinates":{"lon":-46.87611,"lat":-23.51056},"population":251994},{"name":"Baruta","cou_name_en":"Venezuela, Bolivarian Rep. of","coordinates":{"lon":-66.87558,"lat":10.43424},"population":244216},{"name":"Barysaw","cou_name_en":"Belarus","coordinates":{"lon":28.505,"lat":54.2279},"population":144945},{"name":"Basel","cou_name_en":"Switzerland","coordinates":{"lon":7.57327,"lat":47.55839},"population":164488},{"name":"Bashan","cou_name_en":"China","coordinates":{"lon":116.05017,"lat":27.76823},"population":103748},{"name":"Basildon","cou_name_en":"United Kingdom","coordinates":{"lon":0.45782,"lat":51.56844},"population":144859},{"name":"Basingstoke","cou_name_en":"United Kingdom","coordinates":{"lon":-1.08708,"lat":51.26249},"population":107642},{"name":"Basrah","cou_name_en":"Iraq","coordinates":{"lon":47.7804,"lat":30.50852},"population":1326564},{"name":"Bast\u012b","cou_name_en":"India","coordinates":{"lon":82.71617,"lat":26.78817},"population":115115},{"name":"Basuo","cou_name_en":"China","coordinates":{"lon":108.66565,"lat":19.10267},"population":444458},{"name":"Bat Yam","cou_name_en":"Israel","coordinates":{"lon":34.75185,"lat":32.02379},"population":129012},{"name":"Bata","cou_name_en":"Equatorial Guinea","coordinates":{"lon":9.76582,"lat":1.86391},"population":173046},{"name":"Batam","cou_name_en":"Indonesia","coordinates":{"lon":104.02491,"lat":1.14937},"population":1164352},{"name":"Batang","cou_name_en":"Indonesia","coordinates":{"lon":110.7083,"lat":-6.4846},"population":127832},{"name":"Batangas","cou_name_en":"Philippines","coordinates":{"lon":121.0584,"lat":13.7567},"population":237370},{"name":"Bataysk","cou_name_en":"Russian Federation","coordinates":{"lon":39.75181,"lat":47.13975},"population":109962},{"name":"Bath","cou_name_en":"United Kingdom","coordinates":{"lon":-2.36172,"lat":51.3751},"population":101557},{"name":"Bathinda","cou_name_en":"India","coordinates":{"lon":74.93893,"lat":30.20747},"population":242800},{"name":"Batikent","cou_name_en":"Turkey","coordinates":{"lon":32.73083,"lat":39.96833},"population":300000},{"name":"Batman","cou_name_en":"Turkey","coordinates":{"lon":41.13221,"lat":37.88738},"population":452157},{"name":"Batna City","cou_name_en":"Algeria","coordinates":{"lon":6.17414,"lat":35.55597},"population":289504},{"name":"Baton Rouge","cou_name_en":"United States","coordinates":{"lon":-91.18747,"lat":30.44332},"population":228590},{"name":"Battagram","cou_name_en":"Pakistan","coordinates":{"lon":73.02329,"lat":34.67719},"population":700000},{"name":"Battambang","cou_name_en":"Cambodia","coordinates":{"lon":103.19822,"lat":13.10271},"population":119251},{"name":"Batu","cou_name_en":"Indonesia","coordinates":{"lon":112.52833,"lat":-7.87},"population":213046},{"name":"Batu Pahat","cou_name_en":"Malaysia","coordinates":{"lon":102.9325,"lat":1.8548},"population":156236},{"name":"Batumi","cou_name_en":"Georgia","coordinates":{"lon":41.63392,"lat":41.64228},"population":172100},{"name":"Baturaja","cou_name_en":"Indonesia","coordinates":{"lon":104.16695,"lat":-4.12891},"population":134759},{"name":"Bat\u0101la","cou_name_en":"India","coordinates":{"lon":75.20294,"lat":31.80921},"population":145468},{"name":"Baubau","cou_name_en":"Indonesia","coordinates":{"lon":122.6024,"lat":-5.4633},"population":159248},{"name":"Bauchi","cou_name_en":"Nigeria","coordinates":{"lon":9.84388,"lat":10.31032},"population":693700},{"name":"Bauru","cou_name_en":"Brazil","coordinates":{"lon":-49.06056,"lat":-22.31472},"population":379297},{"name":"Bawshar","cou_name_en":"Oman","coordinates":{"lon":58.39982,"lat":23.57769},"population":383257},{"name":"Bayamo","cou_name_en":"Cuba","coordinates":{"lon":-76.64361,"lat":20.37417},"population":192632},{"name":"Bayam\u00f3n","cou_name_en":"Puerto Rico","coordinates":{"lon":-66.15572,"lat":18.39856},"population":203499},{"name":"Bayan Nur","cou_name_en":"China","coordinates":{"lon":107.38599,"lat":40.74143},"population":1760000},{"name":"Bayawan","cou_name_en":"Philippines","coordinates":{"lon":122.804,"lat":9.3649},"population":122747},{"name":"Ba\u011fc\u0131lar","cou_name_en":"Turkey","coordinates":{"lon":28.85671,"lat":41.03903},"population":749024},{"name":"Ba\u015fak\u015fehir","cou_name_en":"Turkey","coordinates":{"lon":28.80203,"lat":41.09307},"population":193750},{"name":"Beau Bassin-Rose Hill","cou_name_en":"Mauritius","coordinates":{"lon":57.46609,"lat":-20.23325},"population":111355},{"name":"Beaumont","cou_name_en":"United States","coordinates":{"lon":-94.10185,"lat":30.08605},"population":115282},{"name":"Bedford","cou_name_en":"United Kingdom","coordinates":{"lon":-0.46632,"lat":52.13459},"population":106940},{"name":"Beersheba","cou_name_en":"Israel","coordinates":{"lon":34.7913,"lat":31.25181},"population":186600},{"name":"Begusarai","cou_name_en":"India","coordinates":{"lon":86.13389,"lat":25.41853},"population":103060},{"name":"Beibei","cou_name_en":"China","coordinates":{"lon":106.43645,"lat":29.82739},"population":247702},{"name":"Beihai","cou_name_en":"China","coordinates":{"lon":109.11549,"lat":21.48349},"population":525329},{"name":"Beijing","cou_name_en":"China","coordinates":{"lon":116.39723,"lat":39.9075},"population":18960744},{"name":"Beiliu","cou_name_en":"China","coordinates":{"lon":110.34917,"lat":22.70722},"population":199769},{"name":"Beipiao","cou_name_en":"China","coordinates":{"lon":120.77917,"lat":41.79194},"population":154999},{"name":"Beira","cou_name_en":"Mozambique","coordinates":{"lon":34.83889,"lat":-19.84361},"population":687764},{"name":"Beirut","cou_name_en":"Lebanon","coordinates":{"lon":35.50157,"lat":33.89332},"population":1916100},{"name":"Bei\u2019an","cou_name_en":"China","coordinates":{"lon":126.6,"lat":48.26667},"population":436444},{"name":"Bekasi","cou_name_en":"Indonesia","coordinates":{"lon":106.9896,"lat":-6.2349},"population":2564940},{"name":"Belagavi","cou_name_en":"India","coordinates":{"lon":74.50447,"lat":15.85212},"population":428720},{"name":"Belawan","cou_name_en":"Indonesia","coordinates":{"lon":98.6832,"lat":3.7755},"population":102707},{"name":"Belfast","cou_name_en":"United Kingdom","coordinates":{"lon":-5.92541,"lat":54.59682},"population":345418},{"name":"Belford Roxo","cou_name_en":"Brazil","coordinates":{"lon":-43.39944,"lat":-22.76417},"population":466096},{"name":"Belgorod","cou_name_en":"Russian Federation","coordinates":{"lon":36.58015,"lat":50.61074},"population":345289},{"name":"Belgrade","cou_name_en":"Serbia","coordinates":{"lon":20.46513,"lat":44.80401},"population":1273651},{"name":"Belgrano","cou_name_en":"Argentina","coordinates":{"lon":-58.45829,"lat":-34.5627},"population":138942},{"name":"Bella Vista","cou_name_en":"Dominican Republic","coordinates":{"lon":-69.9454,"lat":18.45539},"population":175683},{"name":"Bellary","cou_name_en":"India","coordinates":{"lon":76.92398,"lat":15.14205},"population":336681},{"name":"Bellevue","cou_name_en":"United States","coordinates":{"lon":-122.20068,"lat":47.61038},"population":139820},{"name":"Bello","cou_name_en":"Colombia","coordinates":{"lon":-75.55795,"lat":6.33732},"population":392939},{"name":"Belo Horizonte","cou_name_en":"Brazil","coordinates":{"lon":-43.93778,"lat":-19.92083},"population":2721564},{"name":"Bel\u00e9m","cou_name_en":"Brazil","coordinates":{"lon":-48.50444,"lat":-1.45583},"population":1499641},{"name":"Bemowo","cou_name_en":"Poland","coordinates":{"lon":20.90844,"lat":52.2546},"population":102393},{"name":"Bender","cou_name_en":"Moldova, Republic of","coordinates":{"lon":29.47769,"lat":46.83156},"population":110175},{"name":"Bendigo","cou_name_en":"Australia","coordinates":{"lon":144.28024,"lat":-36.75818},"population":103034},{"name":"Bengaluru","cou_name_en":"India","coordinates":{"lon":77.59369,"lat":12.97194},"population":8443675},{"name":"Bengbu","cou_name_en":"China","coordinates":{"lon":117.36083,"lat":32.94083},"population":972784},{"name":"Benghazi","cou_name_en":"Libyan Arab Jamahiriya","coordinates":{"lon":20.06859,"lat":32.11486},"population":757490},{"name":"Bengkulu","cou_name_en":"Indonesia","coordinates":{"lon":102.26554,"lat":-3.80044},"population":373591},{"name":"Benguela","cou_name_en":"Angola","coordinates":{"lon":13.40547,"lat":-12.57626},"population":555124},{"name":"Beni","cou_name_en":"Congo, Democratic Republic of the","coordinates":{"lon":29.47306,"lat":0.49113},"population":140731},{"name":"Beni Mellal","cou_name_en":"Morocco","coordinates":{"lon":-6.34983,"lat":32.33725},"population":210397},{"name":"Benin City","cou_name_en":"Nigeria","coordinates":{"lon":5.62575,"lat":6.33815},"population":1782000},{"name":"Benito Juarez","cou_name_en":"Mexico","coordinates":{"lon":-99.15766,"lat":19.3984},"population":355017},{"name":"Benito Ju\u00e1rez","cou_name_en":"Mexico","coordinates":{"lon":-99.1564,"lat":19.3727},"population":385439},{"name":"Benoni","cou_name_en":"South Africa","coordinates":{"lon":28.32078,"lat":-26.18848},"population":605344},{"name":"Benxi","cou_name_en":"China","coordinates":{"lon":123.765,"lat":41.28861},"population":987717},{"name":"Beppu","cou_name_en":"Japan","coordinates":{"lon":131.49751,"lat":33.27945},"population":122643},{"name":"Berazategui","cou_name_en":"Argentina","coordinates":{"lon":-58.21278,"lat":-34.76531},"population":180523},{"name":"Berbera","cou_name_en":"Somalia","coordinates":{"lon":45.01432,"lat":10.43959},"population":242344},{"name":"Berb\u00e9rati","cou_name_en":"Central African Republic","coordinates":{"lon":15.79216,"lat":4.26116},"population":103713},{"name":"Berdyansk","cou_name_en":"Ukraine","coordinates":{"lon":36.78815,"lat":46.75578},"population":106311},{"name":"Berezniki","cou_name_en":"Russian Federation","coordinates":{"lon":56.8204,"lat":59.4091},"population":167748},{"name":"Bergamo","cou_name_en":"Italy","coordinates":{"lon":9.66721,"lat":45.69601},"population":121200},{"name":"Bergedorf","cou_name_en":"Germany","coordinates":{"lon":10.22904,"lat":53.48462},"population":119665},{"name":"Bergen","cou_name_en":"Norway","coordinates":{"lon":5.32415,"lat":60.39299},"population":285911},{"name":"Bergisch Gladbach","cou_name_en":"Germany","coordinates":{"lon":7.13298,"lat":50.9856},"population":106184},{"name":"Berkane","cou_name_en":"Morocco","coordinates":{"lon":-2.32,"lat":34.92},"population":119284},{"name":"Berkeley","cou_name_en":"United States","coordinates":{"lon":-122.27275,"lat":37.87159},"population":120972},{"name":"Berlin","cou_name_en":"Germany","coordinates":{"lon":13.41053,"lat":52.52437},"population":3426354},{"name":"Bern","cou_name_en":"Switzerland","coordinates":{"lon":7.44744,"lat":46.94809},"population":121631},{"name":"Berrechid","cou_name_en":"Morocco","coordinates":{"lon":-7.58754,"lat":33.26553},"population":149201},{"name":"Bertoua","cou_name_en":"Cameroon","coordinates":{"lon":13.68459,"lat":4.57728},"population":137993},{"name":"Besan\u00e7on","cou_name_en":"France","coordinates":{"lon":6.01815,"lat":47.24878},"population":128426},{"name":"Bet Shemesh","cou_name_en":"Israel","coordinates":{"lon":34.99293,"lat":31.73072},"population":124957},{"name":"Betim","cou_name_en":"Brazil","coordinates":{"lon":-44.19833,"lat":-19.96778},"population":384000},{"name":"Bettiah","cou_name_en":"India","coordinates":{"lon":84.50311,"lat":26.80229},"population":127008},{"name":"Bexley","cou_name_en":"United Kingdom","coordinates":{"lon":0.14866,"lat":51.44162},"population":228000},{"name":"Beylikd\u00fcz\u00fc","cou_name_en":"Turkey","coordinates":{"lon":28.6399,"lat":40.982},"population":122452},{"name":"Be\u0101war","cou_name_en":"India","coordinates":{"lon":74.32028,"lat":26.10119},"population":130777},{"name":"Bhadreswar","cou_name_en":"India","coordinates":{"lon":88.33841,"lat":22.82449},"population":121662},{"name":"Bhadr\u0101vati","cou_name_en":"India","coordinates":{"lon":75.70502,"lat":13.84846},"population":163903},{"name":"Bhairab B\u0101z\u0101r","cou_name_en":"Bangladesh","coordinates":{"lon":90.9764,"lat":24.0524},"population":105457},{"name":"Bharatpur","cou_name_en":"India","coordinates":{"lon":77.49009,"lat":27.21731},"population":229384},{"name":"Bharatpur","cou_name_en":"Nepal","coordinates":{"lon":84.43589,"lat":27.6768},"population":369377},{"name":"Bhar\u016bch","cou_name_en":"India","coordinates":{"lon":72.9805,"lat":21.69482},"population":153528},{"name":"Bhavnagar","cou_name_en":"India","coordinates":{"lon":72.15331,"lat":21.76287},"population":605882},{"name":"Bhayandar","cou_name_en":"India","coordinates":{"lon":72.85107,"lat":19.30157},"population":520301},{"name":"Bhilai","cou_name_en":"India","coordinates":{"lon":81.4285,"lat":21.20919},"population":625138},{"name":"Bhimber","cou_name_en":"Pakistan","coordinates":{"lon":74.07846,"lat":32.97465},"population":342900},{"name":"Bhind","cou_name_en":"India","coordinates":{"lon":78.78728,"lat":26.56671},"population":174035},{"name":"Bhisho","cou_name_en":"South Africa","coordinates":{"lon":27.44218,"lat":-32.84721},"population":137287},{"name":"Bhiwandi","cou_name_en":"India","coordinates":{"lon":73.05881,"lat":19.30023},"population":874032},{"name":"Bhiw\u0101ni","cou_name_en":"India","coordinates":{"lon":76.13968,"lat":28.79304},"population":190855},{"name":"Bhop\u0101l","cou_name_en":"India","coordinates":{"lon":77.40289,"lat":23.25469},"population":1599914},{"name":"Bhubaneswar","cou_name_en":"India","coordinates":{"lon":85.83385,"lat":20.27241},"population":837000},{"name":"Bhuj","cou_name_en":"India","coordinates":{"lon":69.66928,"lat":23.25397},"population":133459},{"name":"Bhus\u0101val","cou_name_en":"India","coordinates":{"lon":75.78506,"lat":21.04365},"population":183001},{"name":"Bh\u0101galpur","cou_name_en":"India","coordinates":{"lon":86.97183,"lat":25.24446},"population":361548},{"name":"Bh\u0101tp\u0101ra","cou_name_en":"India","coordinates":{"lon":88.40113,"lat":22.86643},"population":483129},{"name":"Bh\u012blw\u0101ra","cou_name_en":"India","coordinates":{"lon":74.64081,"lat":25.34707},"population":326431},{"name":"Bh\u012bmavaram","cou_name_en":"India","coordinates":{"lon":81.52322,"lat":16.54078},"population":142967},{"name":"Bia\u0142o\u0142eka","cou_name_en":"Poland","coordinates":{"lon":20.97204,"lat":52.32127},"population":129106},{"name":"Bia\u0142ystok","cou_name_en":"Poland","coordinates":{"lon":23.16433,"lat":53.13333},"population":291855},{"name":"Bibirevo","cou_name_en":"Russian Federation","coordinates":{"lon":37.6,"lat":55.88333},"population":159000},{"name":"Bida","cou_name_en":"Nigeria","coordinates":{"lon":6.0099,"lat":9.08044},"population":400000},{"name":"Bielany","cou_name_en":"Poland","coordinates":{"lon":20.93531,"lat":52.29242},"population":134854},{"name":"Bielefeld","cou_name_en":"Germany","coordinates":{"lon":8.53333,"lat":52.03333},"population":331906},{"name":"Bielsko-Biala","cou_name_en":"Poland","coordinates":{"lon":19.04686,"lat":49.82245},"population":176515},{"name":"Bih\u0101r Shar\u012bf","cou_name_en":"India","coordinates":{"lon":85.52389,"lat":25.20084},"population":244230},{"name":"Bijapur","cou_name_en":"India","coordinates":{"lon":75.71537,"lat":16.82442},"population":271064},{"name":"Bijie","cou_name_en":"China","coordinates":{"lon":105.28627,"lat":27.30193},"population":1137383},{"name":"Bila Tserkva","cou_name_en":"Ukraine","coordinates":{"lon":30.12851,"lat":49.8004},"population":207273},{"name":"Bilbao","cou_name_en":"Spain","coordinates":{"lon":-2.92528,"lat":43.26271},"population":345821},{"name":"Bilbeis","cou_name_en":"Egypt","coordinates":{"lon":31.56223,"lat":30.42039},"population":185237},{"name":"Bilimora","cou_name_en":"India","coordinates":{"lon":72.96134,"lat":20.76957},"population":510879},{"name":"Billings","cou_name_en":"United States","coordinates":{"lon":-108.50069,"lat":45.78329},"population":110263},{"name":"Bilq\u0101s","cou_name_en":"Egypt","coordinates":{"lon":31.35798,"lat":31.21452},"population":137080},{"name":"Bil\u0101spur","cou_name_en":"India","coordinates":{"lon":82.15543,"lat":22.08005},"population":282705},{"name":"Bima","cou_name_en":"Indonesia","coordinates":{"lon":118.72667,"lat":-8.46006},"population":155140},{"name":"Bimbo","cou_name_en":"Central African Republic","coordinates":{"lon":18.41583,"lat":4.25671},"population":348802},{"name":"Binangonan","cou_name_en":"Philippines","coordinates":{"lon":121.1929,"lat":14.4646},"population":219204},{"name":"Bing\u00f6l","cou_name_en":"Turkey","coordinates":{"lon":40.49389,"lat":38.88472},"population":128935},{"name":"Binhe","cou_name_en":"China","coordinates":{"lon":112.8275,"lat":32.68833},"population":278055},{"name":"Binjai","cou_name_en":"Indonesia","coordinates":{"lon":98.4854,"lat":3.6001},"population":279302},{"name":"Bintulu","cou_name_en":"Malaysia","coordinates":{"lon":113.03333,"lat":3.16667},"population":151617},{"name":"Binzhou","cou_name_en":"China","coordinates":{"lon":118.01667,"lat":37.36667},"population":682717},{"name":"Biratnagar","cou_name_en":"Nepal","coordinates":{"lon":87.27007,"lat":26.45505},"population":244750},{"name":"Birga\u00f1j","cou_name_en":"Nepal","coordinates":{"lon":84.8808,"lat":27.01709},"population":268273},{"name":"Birigui","cou_name_en":"Brazil","coordinates":{"lon":-50.34,"lat":-21.28861},"population":102277},{"name":"Birkenhead","cou_name_en":"United Kingdom","coordinates":{"lon":-3.01479,"lat":53.39337},"population":325264},{"name":"Birmingham","cou_name_en":"United States","coordinates":{"lon":-86.80249,"lat":33.52066},"population":212461},{"name":"Birmingham","cou_name_en":"United Kingdom","coordinates":{"lon":-1.89983,"lat":52.48142},"population":1144919},{"name":"Birnin Kebbi","cou_name_en":"Nigeria","coordinates":{"lon":4.1975,"lat":12.45389},"population":108164},{"name":"Biryul\u00ebvo","cou_name_en":"Russian Federation","coordinates":{"lon":37.67781,"lat":55.58635},"population":144000},{"name":"Bishan","cou_name_en":"China","coordinates":{"lon":106.22476,"lat":29.59491},"population":204702},{"name":"Bishkek","cou_name_en":"Kyrgyzstan","coordinates":{"lon":74.59,"lat":42.87},"population":900000},{"name":"Bishoftu","cou_name_en":"Ethiopia","coordinates":{"lon":38.97846,"lat":8.75225},"population":207400},{"name":"Biskra","cou_name_en":"Algeria","coordinates":{"lon":5.72805,"lat":34.85038},"population":204661},{"name":"Bissau","cou_name_en":"Guinea-Bissau","coordinates":{"lon":-15.59767,"lat":11.86357},"population":439704},{"name":"Bitung","cou_name_en":"Indonesia","coordinates":{"lon":125.12824,"lat":1.44059},"population":225134},{"name":"Biysk","cou_name_en":"Russian Federation","coordinates":{"lon":85.20722,"lat":52.53639},"population":215430},{"name":"Bizerte","cou_name_en":"Tunisia","coordinates":{"lon":9.87391,"lat":37.27442},"population":115268},{"name":"Bi\u00ean H\u00f2a","cou_name_en":"Viet Nam","coordinates":{"lon":106.82432,"lat":10.94469},"population":830829},{"name":"Bi\u00f1an","cou_name_en":"Philippines","coordinates":{"lon":121.08071,"lat":14.34267},"population":300000},{"name":"Blackburn","cou_name_en":"United Kingdom","coordinates":{"lon":-2.48333,"lat":53.75},"population":146521},{"name":"Blackpool","cou_name_en":"United Kingdom","coordinates":{"lon":-3.05,"lat":53.81667},"population":145007},{"name":"Blagoveshchensk","cou_name_en":"Russian Federation","coordinates":{"lon":127.5405,"lat":50.27961},"population":225091},{"name":"Blantyre","cou_name_en":"Malawi","coordinates":{"lon":35.00854,"lat":-15.78499},"population":902588},{"name":"Blida","cou_name_en":"Algeria","coordinates":{"lon":2.8277,"lat":36.47004},"population":331779},{"name":"Blitar","cou_name_en":"Indonesia","coordinates":{"lon":112.1681,"lat":-8.0983},"population":150371},{"name":"Bloemfontein","cou_name_en":"South Africa","coordinates":{"lon":26.214,"lat":-29.12107},"population":556000},{"name":"Blumenau","cou_name_en":"Brazil","coordinates":{"lon":-49.06611,"lat":-26.91944},"population":361855},{"name":"Bnei Brak","cou_name_en":"Israel","coordinates":{"lon":34.8338,"lat":32.08074},"population":214444},{"name":"Bo","cou_name_en":"Sierra Leone","coordinates":{"lon":-11.73833,"lat":7.96472},"population":174354},{"name":"Boa Vista","cou_name_en":"Brazil","coordinates":{"lon":-60.67333,"lat":2.81972},"population":419652},{"name":"Bobo-Dioulasso","cou_name_en":"Burkina Faso","coordinates":{"lon":-4.2979,"lat":11.17715},"population":904920},{"name":"Bochum","cou_name_en":"Germany","coordinates":{"lon":7.21648,"lat":51.48165},"population":385729},{"name":"Bochum-Hordel","cou_name_en":"Germany","coordinates":{"lon":7.1756,"lat":51.50168},"population":380000},{"name":"Bogor","cou_name_en":"Indonesia","coordinates":{"lon":106.78917,"lat":-6.59444},"population":1099422},{"name":"Bogorodskoye","cou_name_en":"Russian Federation","coordinates":{"lon":37.71617,"lat":55.81353},"population":103000},{"name":"Bogot\u00e1","cou_name_en":"Colombia","coordinates":{"lon":-74.08175,"lat":4.60971},"population":7674366},{"name":"Bogra","cou_name_en":"Bangladesh","coordinates":{"lon":89.37108,"lat":24.85098},"population":210000},{"name":"Boise","cou_name_en":"United States","coordinates":{"lon":-116.20345,"lat":43.6135},"population":145987},{"name":"Bojn\u016brd","cou_name_en":"Iran, Islamic Rep. of","coordinates":{"lon":57.32903,"lat":37.47473},"population":192041},{"name":"Bokhtar","cou_name_en":"Tajikistan","coordinates":{"lon":68.7775,"lat":37.83667},"population":110800},{"name":"Boksburg","cou_name_en":"South Africa","coordinates":{"lon":28.25958,"lat":-26.21197},"population":445168},{"name":"Bok\u0101ro","cou_name_en":"India","coordinates":{"lon":86.15161,"lat":23.66934},"population":564319},{"name":"Bole","cou_name_en":"China","coordinates":{"lon":82.06993,"lat":44.89334},"population":235585},{"name":"Bologna","cou_name_en":"Italy","coordinates":{"lon":11.33875,"lat":44.49381},"population":394843},{"name":"Bolton","cou_name_en":"United Kingdom","coordinates":{"lon":-2.43333,"lat":53.58333},"population":141331},{"name":"Bolu","cou_name_en":"Turkey","coordinates":{"lon":31.60611,"lat":40.73583},"population":184682},{"name":"Bolzano","cou_name_en":"Italy","coordinates":{"lon":11.33982,"lat":46.49067},"population":107436},{"name":"Boma","cou_name_en":"Congo, Democratic Republic of the","coordinates":{"lon":13.05364,"lat":-5.85098},"population":297009},{"name":"Bondoukou","cou_name_en":"C\u00f4te d'Ivoire","coordinates":{"lon":-2.80003,"lat":8.0402},"population":141568},{"name":"Bonn","cou_name_en":"Germany","coordinates":{"lon":7.09549,"lat":50.73438},"population":330579},{"name":"Bonon","cou_name_en":"C\u00f4te d'Ivoire","coordinates":{"lon":-6.0489,"lat":6.9268},"population":119938},{"name":"Bontang","cou_name_en":"Indonesia","coordinates":{"lon":117.4854,"lat":0.1324},"population":178917},{"name":"Borama","cou_name_en":"Somalia","coordinates":{"lon":43.18278,"lat":9.93611},"population":597842},{"name":"Bordeaux","cou_name_en":"France","coordinates":{"lon":-0.5805,"lat":44.84044},"population":260958},{"name":"Bordj Bou Arreridj","cou_name_en":"Algeria","coordinates":{"lon":4.76139,"lat":36.07389},"population":158812},{"name":"Bordj el Kiffan","cou_name_en":"Algeria","coordinates":{"lon":3.19249,"lat":36.74871},"population":123246},{"name":"Borivli","cou_name_en":"India","coordinates":{"lon":72.85976,"lat":19.23496},"population":609617},{"name":"Borough Park","cou_name_en":"United States","coordinates":{"lon":-73.99681,"lat":40.63399},"population":149248},{"name":"Bor\u016bjerd","cou_name_en":"Iran, Islamic Rep. of","coordinates":{"lon":48.7516,"lat":33.8973},"population":251958},{"name":"Boshan","cou_name_en":"China","coordinates":{"lon":117.83333,"lat":36.48333},"population":153596},{"name":"Boston","cou_name_en":"United States","coordinates":{"lon":-71.05977,"lat":42.35843},"population":675647},{"name":"Boto\u015fani","cou_name_en":"Romania","coordinates":{"lon":26.66667,"lat":47.75},"population":114783},{"name":"Botshabelo","cou_name_en":"South Africa","coordinates":{"lon":26.72595,"lat":-29.26737},"population":309714},{"name":"Bottrop","cou_name_en":"Germany","coordinates":{"lon":6.9285,"lat":51.52392},"population":119909},{"name":"Botucatu","cou_name_en":"Brazil","coordinates":{"lon":-48.445,"lat":-22.88583},"population":148130},{"name":"Bot\u0101d","cou_name_en":"India","coordinates":{"lon":71.66671,"lat":22.16917},"population":117053},{"name":"Bou Sa\u00e2da","cou_name_en":"Algeria","coordinates":{"lon":4.17402,"lat":35.20855},"population":111787},{"name":"Bouafl\u00e9","cou_name_en":"C\u00f4te d'Ivoire","coordinates":{"lon":-5.7442,"lat":6.99041},"population":104209},{"name":"Bouak\u00e9","cou_name_en":"C\u00f4te d'Ivoire","coordinates":{"lon":-5.03031,"lat":7.69385},"population":832371},{"name":"Boulder","cou_name_en":"United States","coordinates":{"lon":-105.27055,"lat":40.01499},"population":107349},{"name":"Boulogne-Billancourt","cou_name_en":"France","coordinates":{"lon":2.24128,"lat":48.83545},"population":108782},{"name":"Bournemouth","cou_name_en":"United Kingdom","coordinates":{"lon":-1.8795,"lat":50.72048},"population":163600},{"name":"Bouskoura","cou_name_en":"Morocco","coordinates":{"lon":-7.65239,"lat":33.44976},"population":112501},{"name":"Boyeros","cou_name_en":"Cuba","coordinates":{"lon":-82.4017,"lat":23.0072},"population":188593},{"name":"Bozhou","cou_name_en":"China","coordinates":{"lon":115.77028,"lat":33.87722},"population":1409436},{"name":"Bradford","cou_name_en":"United Kingdom","coordinates":{"lon":-1.75206,"lat":53.79391},"population":366187},{"name":"Braga","cou_name_en":"Portugal","coordinates":{"lon":-8.42005,"lat":41.55032},"population":121394},{"name":"Bragan\u00e7a Paulista","cou_name_en":"Brazil","coordinates":{"lon":-46.54418,"lat":-22.9527},"population":125096},{"name":"Brahmapur","cou_name_en":"India","coordinates":{"lon":84.7929,"lat":19.31151},"population":324726},{"name":"Brakpan","cou_name_en":"South Africa","coordinates":{"lon":28.36938,"lat":-26.23656},"population":305692},{"name":"Brampton","cou_name_en":"Canada","coordinates":{"lon":-79.76633,"lat":43.68341},"population":593638},{"name":"Brandon","cou_name_en":"United States","coordinates":{"lon":-82.28592,"lat":27.9378},"population":103483},{"name":"Bras\u00edlia","cou_name_en":"Brazil","coordinates":{"lon":-47.92972,"lat":-15.77972},"population":2207718},{"name":"Brateyevo","cou_name_en":"Russian Federation","coordinates":{"lon":37.76438,"lat":55.63755},"population":102000},{"name":"Bratislava","cou_name_en":"Slovakia","coordinates":{"lon":17.10674,"lat":48.14816},"population":423737},{"name":"Bratsk","cou_name_en":"Russian Federation","coordinates":{"lon":101.61417,"lat":56.1325},"population":256600},{"name":"Braunschweig","cou_name_en":"Germany","coordinates":{"lon":10.52673,"lat":52.26594},"population":244715},{"name":"Brazzaville","cou_name_en":"Congo","coordinates":{"lon":15.28318,"lat":-4.26613},"population":1982000},{"name":"Bra\u015fov","cou_name_en":"Romania","coordinates":{"lon":25.60613,"lat":45.64861},"population":253200},{"name":"Breda","cou_name_en":"Netherlands","coordinates":{"lon":4.77596,"lat":51.58656},"population":167673},{"name":"Bremen","cou_name_en":"Germany","coordinates":{"lon":8.80717,"lat":53.07582},"population":546501},{"name":"Bremerhaven","cou_name_en":"Germany","coordinates":{"lon":8.59298,"lat":53.53615},"population":113557},{"name":"Brent","cou_name_en":"United Kingdom","coordinates":{"lon":-0.3023,"lat":51.55306},"population":329100},{"name":"Brescia","cou_name_en":"Italy","coordinates":{"lon":10.21472,"lat":45.53558},"population":200423},{"name":"Brest","cou_name_en":"France","coordinates":{"lon":-4.48628,"lat":48.39029},"population":144899},{"name":"Brest","cou_name_en":"Belarus","coordinates":{"lon":23.68775,"lat":52.09755},"population":362641},{"name":"Bridgeport","cou_name_en":"United States","coordinates":{"lon":-73.18945,"lat":41.17923},"population":147629},{"name":"Brighton","cou_name_en":"United Kingdom","coordinates":{"lon":-0.13947,"lat":50.82838},"population":277103},{"name":"Brisbane","cou_name_en":"Australia","coordinates":{"lon":153.02809,"lat":-27.46794},"population":2582007},{"name":"Bristol","cou_name_en":"United Kingdom","coordinates":{"lon":-2.59665,"lat":51.45523},"population":465866},{"name":"Brits","cou_name_en":"South Africa","coordinates":{"lon":27.78022,"lat":-25.63473},"population":122497},{"name":"Brno","cou_name_en":"Czech Republic","coordinates":{"lon":16.60796,"lat":49.19522},"population":379466},{"name":"Broken Arrow","cou_name_en":"United States","coordinates":{"lon":-95.79082,"lat":36.0526},"population":106563},{"name":"Brooklyn","cou_name_en":"United States","coordinates":{"lon":-73.94958,"lat":40.6501},"population":2736074},{"name":"Brovary","cou_name_en":"Ukraine","coordinates":{"lon":30.80671,"lat":50.51809},"population":109806},{"name":"Brownsville","cou_name_en":"United States","coordinates":{"lon":-97.49748,"lat":25.90175},"population":183887},{"name":"Brugge","cou_name_en":"Belgium","coordinates":{"lon":3.22424,"lat":51.20892},"population":118509},{"name":"Brussels","cou_name_en":"Belgium","coordinates":{"lon":4.34878,"lat":50.85045},"population":1019022},{"name":"Bryansk","cou_name_en":"Russian Federation","coordinates":{"lon":34.37167,"lat":53.25209},"population":427236},{"name":"Br\u0103ila","cou_name_en":"Romania","coordinates":{"lon":27.97429,"lat":45.27152},"population":213569},{"name":"Bucaramanga","cou_name_en":"Colombia","coordinates":{"lon":-73.1198,"lat":7.12539},"population":581130},{"name":"Bucharest","cou_name_en":"Romania","coordinates":{"lon":26.10626,"lat":44.43225},"population":1877155},{"name":"Bucheon-si","cou_name_en":"Korea, Republic of","coordinates":{"lon":126.78306,"lat":37.49889},"population":850731},{"name":"Budapest","cou_name_en":"Hungary","coordinates":{"lon":19.04045,"lat":47.49835},"population":1741041},{"name":"Budapest III. ker\u00fclet","cou_name_en":"Hungary","coordinates":{"lon":19.04501,"lat":47.54157},"population":123723},{"name":"Budapest XI. ker\u00fclet","cou_name_en":"Hungary","coordinates":{"lon":19.03605,"lat":47.47603},"population":139049},{"name":"Budapest XIII. ker\u00fclet","cou_name_en":"Hungary","coordinates":{"lon":19.08068,"lat":47.52978},"population":113531},{"name":"Budaun","cou_name_en":"India","coordinates":{"lon":79.12668,"lat":28.03811},"population":161555},{"name":"Budta","cou_name_en":"Philippines","coordinates":{"lon":124.43972,"lat":7.20417},"population":1273715},{"name":"Buea","cou_name_en":"Cameroon","coordinates":{"lon":9.24231,"lat":4.15342},"population":140533},{"name":"Buenaventura","cou_name_en":"Colombia","coordinates":{"lon":-77.03116,"lat":3.8801},"population":240387},{"name":"Buenaventura","cou_name_en":"Colombia","coordinates":{"lon":-77.0,"lat":3.58333},"population":432385},{"name":"Buenavista","cou_name_en":"Mexico","coordinates":{"lon":-99.16944,"lat":19.60833},"population":206081},{"name":"Buenos Aires","cou_name_en":"Argentina","coordinates":{"lon":-58.37723,"lat":-34.61315},"population":2891082},{"name":"Buffalo","cou_name_en":"United States","coordinates":{"lon":-78.87837,"lat":42.88645},"population":258071},{"name":"Buguma","cou_name_en":"Nigeria","coordinates":{"lon":6.86236,"lat":4.73614},"population":135404},{"name":"Buhe","cou_name_en":"China","coordinates":{"lon":112.22979,"lat":30.28757},"population":106347},{"name":"Bujumbura","cou_name_en":"Burundi","coordinates":{"lon":29.36142,"lat":-3.38193},"population":769317},{"name":"Bukama","cou_name_en":"Congo, Democratic Republic of the","coordinates":{"lon":25.85475,"lat":-9.20443},"population":105530},{"name":"Bukavu","cou_name_en":"Congo, Democratic Republic of the","coordinates":{"lon":28.84281,"lat":-2.49077},"population":816811},{"name":"Bukhara","cou_name_en":"Uzbekistan","coordinates":{"lon":64.42861,"lat":39.77472},"population":280187},{"name":"Bukit Mertajam","cou_name_en":"Malaysia","coordinates":{"lon":100.4667,"lat":5.36301},"population":212329},{"name":"Bukittinggi","cou_name_en":"Indonesia","coordinates":{"lon":100.37055,"lat":-0.30907},"population":121028},{"name":"Bukoba","cou_name_en":"Tanzania, United Republic of","coordinates":{"lon":31.81222,"lat":-1.33167},"population":144938},{"name":"Bulandshahr","cou_name_en":"India","coordinates":{"lon":77.85773,"lat":28.40392},"population":198612},{"name":"Bulaon","cou_name_en":"Philippines","coordinates":{"lon":120.66288,"lat":15.08262},"population":131818},{"name":"Bulawayo","cou_name_en":"Zimbabwe","coordinates":{"lon":28.58333,"lat":-20.15},"population":1200337},{"name":"Bumba","cou_name_en":"Congo, Democratic Republic of the","coordinates":{"lon":22.46827,"lat":2.18771},"population":154586},{"name":"Bunia","cou_name_en":"Congo, Democratic Republic of the","coordinates":{"lon":30.25224,"lat":1.55941},"population":399282},{"name":"Buraydah","cou_name_en":"Saudi Arabia","coordinates":{"lon":43.97497,"lat":26.32599},"population":745353},{"name":"Burayu","cou_name_en":"Ethiopia","coordinates":{"lon":38.66083,"lat":9.03528},"population":101400},{"name":"Burbank","cou_name_en":"United States","coordinates":{"lon":-118.30897,"lat":34.18084},"population":105319},{"name":"Burewala","cou_name_en":"Pakistan","coordinates":{"lon":72.65,"lat":30.16667},"population":183915},{"name":"Burgas","cou_name_en":"Bulgaria","coordinates":{"lon":27.46781,"lat":42.50606},"population":195966},{"name":"Burgos","cou_name_en":"Spain","coordinates":{"lon":-3.70184,"lat":42.34106},"population":178966},{"name":"Burh\u0101npur","cou_name_en":"India","coordinates":{"lon":76.23026,"lat":21.30868},"population":202695},{"name":"Burlington","cou_name_en":"Canada","coordinates":{"lon":-79.83713,"lat":43.38621},"population":183314},{"name":"Burnaby","cou_name_en":"Canada","coordinates":{"lon":-122.95263,"lat":49.26636},"population":202799},{"name":"Burnley","cou_name_en":"United Kingdom","coordinates":{"lon":-2.23333,"lat":53.8},"population":149422},{"name":"Bursa","cou_name_en":"Turkey","coordinates":{"lon":29.06013,"lat":40.19559},"population":3101833},{"name":"Burton upon Trent","cou_name_en":"United Kingdom","coordinates":{"lon":-1.64263,"lat":52.80728},"population":122199},{"name":"Busan","cou_name_en":"Korea, Republic of","coordinates":{"lon":129.03004,"lat":35.10168},"population":3678555},{"name":"Bushehr","cou_name_en":"Iran, Islamic Rep. of","coordinates":{"lon":50.83657,"lat":28.96887},"population":165377},{"name":"Bushwick","cou_name_en":"United States","coordinates":{"lon":-73.91875,"lat":40.69427},"population":112620},{"name":"Butembo","cou_name_en":"Congo, Democratic Republic of the","coordinates":{"lon":29.29117,"lat":0.14164},"population":286242},{"name":"Butterworth","cou_name_en":"Malaysia","coordinates":{"lon":100.36382,"lat":5.3991},"population":107591},{"name":"Butuan","cou_name_en":"Philippines","coordinates":{"lon":125.54361,"lat":8.94917},"population":309709},{"name":"Buz\u0103u","cou_name_en":"Romania","coordinates":{"lon":26.83333,"lat":45.15},"population":130954},{"name":"Bu\u00f4n H\u1ed3","cou_name_en":"Viet Nam","coordinates":{"lon":108.2962,"lat":12.95226},"population":127920},{"name":"Bu\u00f4n Ma Thu\u1ed9t","cou_name_en":"Viet Nam","coordinates":{"lon":108.03775,"lat":12.66747},"population":146975},{"name":"Bydgoszcz","cou_name_en":"Poland","coordinates":{"lon":18.00762,"lat":53.1235},"population":366452},{"name":"Bytom","cou_name_en":"Poland","coordinates":{"lon":18.93282,"lat":50.34802},"population":189186},{"name":"B\u00e9char","cou_name_en":"Algeria","coordinates":{"lon":-2.21667,"lat":31.61667},"population":165241},{"name":"B\u00e9goua","cou_name_en":"Central African Republic","coordinates":{"lon":18.53475,"lat":4.45437},"population":264067},{"name":"B\u00e9ja\u00efa","cou_name_en":"Algeria","coordinates":{"lon":5.08433,"lat":36.75587},"population":176139},{"name":"B\u00ecnh Th\u1ee7y","cou_name_en":"Viet Nam","coordinates":{"lon":105.73974,"lat":10.07431},"population":113565},{"name":"B\u00fcy\u00fck\u00e7ekmece","cou_name_en":"Turkey","coordinates":{"lon":28.58502,"lat":41.02072},"population":163140},{"name":"B\u0101bol","cou_name_en":"Iran, Islamic Rep. of","coordinates":{"lon":52.6786,"lat":36.55102},"population":202796},{"name":"B\u0101li","cou_name_en":"India","coordinates":{"lon":88.34115,"lat":22.64859},"population":296973},{"name":"B\u0101lurgh\u0101t","cou_name_en":"India","coordinates":{"lon":88.77732,"lat":25.22099},"population":141404},{"name":"B\u0101nda","cou_name_en":"India","coordinates":{"lon":80.33491,"lat":25.47758},"population":152218},{"name":"B\u0101neh","cou_name_en":"Iran, Islamic Rep. of","coordinates":{"lon":45.8853,"lat":35.9975},"population":104799},{"name":"B\u0101nkura","cou_name_en":"India","coordinates":{"lon":87.0716,"lat":23.23241},"population":133966},{"name":"B\u0101nsb\u0101ria","cou_name_en":"India","coordinates":{"lon":88.40098,"lat":22.95387},"population":108474},{"name":"B\u0101rsi","cou_name_en":"India","coordinates":{"lon":75.69275,"lat":18.23454},"population":110983},{"name":"B\u0101r\u0101kpur","cou_name_en":"India","coordinates":{"lon":88.36336,"lat":22.76602},"population":148174},{"name":"B\u0101r\u0101sat","cou_name_en":"India","coordinates":{"lon":88.48198,"lat":22.72154},"population":298127},{"name":"B\u0103l\u0163i","cou_name_en":"Moldova, Republic of","coordinates":{"lon":27.92932,"lat":47.76314},"population":125000},{"name":"B\u012bdar","cou_name_en":"India","coordinates":{"lon":77.51524,"lat":17.90802},"population":204071},{"name":"B\u012bkaner","cou_name_en":"India","coordinates":{"lon":73.31495,"lat":28.01762},"population":576015},{"name":"B\u012brjand","cou_name_en":"Iran, Islamic Rep. of","coordinates":{"lon":59.22114,"lat":32.86628},"population":196982},{"name":"B\u016bk\u0101n","cou_name_en":"Iran, Islamic Rep. of","coordinates":{"lon":46.2089,"lat":36.521},"population":213331},{"name":"B\u016bsh","cou_name_en":"Egypt","coordinates":{"lon":31.12733,"lat":29.14816},"population":136441},{"name":"B\u1ea1c Li\u00eau","cou_name_en":"Viet Nam","coordinates":{"lon":105.72776,"lat":9.29414},"population":107911},{"name":"B\u1ea3o L\u1ed9c","cou_name_en":"Viet Nam","coordinates":{"lon":107.80772,"lat":11.54798},"population":151915},{"name":"B\u1ebfn Tre","cou_name_en":"Viet Nam","coordinates":{"lon":106.37585,"lat":10.24147},"population":124449},{"name":"Cabanatuan City","cou_name_en":"Philippines","coordinates":{"lon":120.96648,"lat":15.48586},"population":327325},{"name":"Cabimas","cou_name_en":"Venezuela, Bolivarian Rep. of","coordinates":{"lon":-71.45206,"lat":10.39907},"population":291147},{"name":"Cabinda","cou_name_en":"Angola","coordinates":{"lon":12.19787,"lat":-5.56717},"population":550000},{"name":"Cabo","cou_name_en":"Brazil","coordinates":{"lon":-35.03333,"lat":-8.28333},"population":143105},{"name":"Cabo Frio","cou_name_en":"Brazil","coordinates":{"lon":-42.02622,"lat":-22.88717},"population":108239},{"name":"Cabudare","cou_name_en":"Venezuela, Bolivarian Rep. of","coordinates":{"lon":-69.26203,"lat":10.02658},"population":102686},{"name":"Cabudwaaq","cou_name_en":"Somalia","coordinates":{"lon":46.2247,"lat":6.24585},"population":120000},{"name":"Cabuyao","cou_name_en":"Philippines","coordinates":{"lon":121.1262,"lat":14.2726},"population":308745},{"name":"Cachoeirinha","cou_name_en":"Brazil","coordinates":{"lon":-51.09389,"lat":-29.95111},"population":121084},{"name":"Cachoeiro de Itapemirim","cou_name_en":"Brazil","coordinates":{"lon":-41.11278,"lat":-20.84889},"population":187019},{"name":"Cadiz","cou_name_en":"Philippines","coordinates":{"lon":123.288,"lat":10.9465},"population":129053},{"name":"Cadiz","cou_name_en":"Spain","coordinates":{"lon":-6.2891,"lat":36.52672},"population":126766},{"name":"Caen","cou_name_en":"France","coordinates":{"lon":-0.35912,"lat":49.18585},"population":110624},{"name":"Cagayan de Oro","cou_name_en":"Philippines","coordinates":{"lon":124.64722,"lat":8.48222},"population":445103},{"name":"Cagliari","cou_name_en":"Italy","coordinates":{"lon":9.11917,"lat":39.23054},"population":149257},{"name":"Cagua","cou_name_en":"Venezuela, Bolivarian Rep. of","coordinates":{"lon":-67.45935,"lat":10.18634},"population":119033},{"name":"Cainta","cou_name_en":"Philippines","coordinates":{"lon":121.1222,"lat":14.5786},"population":283172},{"name":"Cairns","cou_name_en":"Australia","coordinates":{"lon":145.76613,"lat":-16.92366},"population":153075},{"name":"Cairo","cou_name_en":"Egypt","coordinates":{"lon":31.24967,"lat":30.06263},"population":9606916},{"name":"Cajamarca","cou_name_en":"Peru","coordinates":{"lon":-78.50027,"lat":-7.16378},"population":201329},{"name":"Calabar","cou_name_en":"Nigeria","coordinates":{"lon":8.32695,"lat":4.95893},"population":540000},{"name":"Calabozo","cou_name_en":"Venezuela, Bolivarian Rep. of","coordinates":{"lon":-67.42929,"lat":8.92416},"population":168605},{"name":"Calama","cou_name_en":"Chile","coordinates":{"lon":-68.92371,"lat":-22.45667},"population":143084},{"name":"Calamba","cou_name_en":"Philippines","coordinates":{"lon":121.16528,"lat":14.21167},"population":539671},{"name":"Calgary","cou_name_en":"Canada","coordinates":{"lon":-114.08529,"lat":51.05011},"population":1019942},{"name":"Cali","cou_name_en":"Colombia","coordinates":{"lon":-76.5225,"lat":3.43722},"population":2392877},{"name":"Callao","cou_name_en":"Peru","coordinates":{"lon":-77.11814,"lat":-12.05659},"population":1300000},{"name":"Caloocan City","cou_name_en":"Philippines","coordinates":{"lon":120.96788,"lat":14.64953},"population":1500000},{"name":"Cam Ranh","cou_name_en":"Viet Nam","coordinates":{"lon":109.15913,"lat":11.92144},"population":146771},{"name":"Camag\u00fcey","cou_name_en":"Cuba","coordinates":{"lon":-77.91694,"lat":21.38083},"population":347562},{"name":"Camayenne","cou_name_en":"Guinea","coordinates":{"lon":-13.68778,"lat":9.535},"population":1871242},{"name":"Cama\u00e7ari","cou_name_en":"Brazil","coordinates":{"lon":-38.32417,"lat":-12.6975},"population":188758},{"name":"Cambridge","cou_name_en":"United States","coordinates":{"lon":-71.10561,"lat":42.3751},"population":110402},{"name":"Cambridge","cou_name_en":"Canada","coordinates":{"lon":-80.31269,"lat":43.3601},"population":129920},{"name":"Cambridge","cou_name_en":"United Kingdom","coordinates":{"lon":0.11667,"lat":52.2},"population":145674},{"name":"Campeche","cou_name_en":"Mexico","coordinates":{"lon":-90.52554,"lat":19.84386},"population":220389},{"name":"Campina Grande","cou_name_en":"Brazil","coordinates":{"lon":-35.88111,"lat":-7.23056},"population":348936},{"name":"Campinas","cou_name_en":"Brazil","coordinates":{"lon":-47.06083,"lat":-22.90556},"population":1031554},{"name":"Campo Grande","cou_name_en":"Brazil","coordinates":{"lon":-54.64639,"lat":-20.44278},"population":906092},{"name":"Campos dos Goytacazes","cou_name_en":"Brazil","coordinates":{"lon":-41.33044,"lat":-21.75227},"population":511168},{"name":"Canberra","cou_name_en":"Australia","coordinates":{"lon":149.12807,"lat":-35.28346},"population":367752},{"name":"Canc\u00fan","cou_name_en":"Mexico","coordinates":{"lon":-86.84656,"lat":21.17429},"population":628306},{"name":"Cangzhou","cou_name_en":"China","coordinates":{"lon":116.85334,"lat":38.31124},"population":527681},{"name":"Canoas","cou_name_en":"Brazil","coordinates":{"lon":-51.18361,"lat":-29.91778},"population":328291},{"name":"Cap-Ha\u00eftien","cou_name_en":"Haiti","coordinates":{"lon":-72.19815,"lat":19.75938},"population":134815},{"name":"Cape Coast","cou_name_en":"Ghana","coordinates":{"lon":-1.2466,"lat":5.10535},"population":212426},{"name":"Cape Coral","cou_name_en":"United States","coordinates":{"lon":-81.94953,"lat":26.56285},"population":175229},{"name":"Cape Town","cou_name_en":"South Africa","coordinates":{"lon":18.42322,"lat":-33.92584},"population":4710000},{"name":"Capiat\u00e1","cou_name_en":"Paraguay","coordinates":{"lon":-57.44545,"lat":-25.3552},"population":198553},{"name":"Carabanchel","cou_name_en":"Spain","coordinates":{"lon":-3.7242,"lat":40.39094},"population":253678},{"name":"Caracas","cou_name_en":"Venezuela, Bolivarian Rep. of","coordinates":{"lon":-66.87919,"lat":10.48801},"population":3000000},{"name":"Caraguatatuba","cou_name_en":"Brazil","coordinates":{"lon":-45.41306,"lat":-23.62028},"population":123389},{"name":"Carapicu\u00edba","cou_name_en":"Brazil","coordinates":{"lon":-46.835,"lat":-23.52272},"population":361112},{"name":"Cardiff","cou_name_en":"United Kingdom","coordinates":{"lon":-3.18,"lat":51.48},"population":447287},{"name":"Carletonville","cou_name_en":"South Africa","coordinates":{"lon":27.39767,"lat":-26.36094},"population":182304},{"name":"Carlsbad","cou_name_en":"United States","coordinates":{"lon":-117.35059,"lat":33.15809},"population":114746},{"name":"Carnot","cou_name_en":"Central African Republic","coordinates":{"lon":15.87735,"lat":4.94273},"population":129032},{"name":"Carolina","cou_name_en":"Puerto Rico","coordinates":{"lon":-65.95739,"lat":18.38078},"population":170404},{"name":"Carora","cou_name_en":"Venezuela, Bolivarian Rep. of","coordinates":{"lon":-70.081,"lat":10.17283},"population":121741},{"name":"Carrefour","cou_name_en":"Haiti","coordinates":{"lon":-72.39922,"lat":18.54114},"population":442156},{"name":"Carrollton","cou_name_en":"United States","coordinates":{"lon":-96.89028,"lat":32.95373},"population":133168},{"name":"Cartagena","cou_name_en":"Colombia","coordinates":{"lon":-75.51444,"lat":10.39972},"population":914552},{"name":"Cartagena","cou_name_en":"Spain","coordinates":{"lon":-0.98397,"lat":37.60197},"population":211996},{"name":"Cartago","cou_name_en":"Colombia","coordinates":{"lon":-75.91167,"lat":4.74639},"population":134972},{"name":"Caruaru","cou_name_en":"Brazil","coordinates":{"lon":-35.97611,"lat":-8.28333},"population":235371},{"name":"Cary","cou_name_en":"United States","coordinates":{"lon":-78.78112,"lat":35.79154},"population":159769},{"name":"Car\u00fapano","cou_name_en":"Venezuela, Bolivarian Rep. of","coordinates":{"lon":-63.25387,"lat":10.66516},"population":167187},{"name":"Casablanca","cou_name_en":"Morocco","coordinates":{"lon":-7.61138,"lat":33.58831},"population":3665954},{"name":"Cascavel","cou_name_en":"Brazil","coordinates":{"lon":-53.45528,"lat":-24.95583},"population":257172},{"name":"Castanhal","cou_name_en":"Brazil","coordinates":{"lon":-47.92639,"lat":-1.29389},"population":137406},{"name":"Castelar","cou_name_en":"Argentina","coordinates":{"lon":-58.64074,"lat":-34.65142},"population":107786},{"name":"Castell\u00f3 de la Plana","cou_name_en":"Spain","coordinates":{"lon":-0.04935,"lat":39.98567},"population":180005},{"name":"Catamarca","cou_name_en":"Argentina","coordinates":{"lon":-65.78524,"lat":-28.46957},"population":159139},{"name":"Catanduva","cou_name_en":"Brazil","coordinates":{"lon":-48.97278,"lat":-21.13778},"population":109612},{"name":"Catania","cou_name_en":"Italy","coordinates":{"lon":15.07041,"lat":37.49223},"population":311584},{"name":"Catia La Mar","cou_name_en":"Venezuela, Bolivarian Rep. of","coordinates":{"lon":-67.03238,"lat":10.60545},"population":106822},{"name":"Caucaia","cou_name_en":"Brazil","coordinates":{"lon":-38.65306,"lat":-3.73611},"population":275019},{"name":"Cavite City","cou_name_en":"Philippines","coordinates":{"lon":120.89878,"lat":14.48369},"population":115932},{"name":"Caxias","cou_name_en":"Brazil","coordinates":{"lon":-43.35611,"lat":-4.85889},"population":148072},{"name":"Caxias do Sul","cou_name_en":"Brazil","coordinates":{"lon":-51.17944,"lat":-29.16806},"population":381270},{"name":"Ca\u00e1la","cou_name_en":"Angola","coordinates":{"lon":15.56056,"lat":-12.8525},"population":130000},{"name":"Cebu City","cou_name_en":"Philippines","coordinates":{"lon":123.89071,"lat":10.31672},"population":964169},{"name":"Cedar Rapids","cou_name_en":"United States","coordinates":{"lon":-91.64407,"lat":42.00833},"population":130405},{"name":"Celaya","cou_name_en":"Mexico","coordinates":{"lon":-100.8157,"lat":20.52353},"population":340387},{"name":"Centennial","cou_name_en":"United States","coordinates":{"lon":-104.87692,"lat":39.57916},"population":109741},{"name":"Centralniy","cou_name_en":"Russian Federation","coordinates":{"lon":30.36072,"lat":59.93111},"population":214625},{"name":"Centro Habana","cou_name_en":"Cuba","coordinates":{"lon":-82.36417,"lat":23.13833},"population":158151},{"name":"Centurion","cou_name_en":"South Africa","coordinates":{"lon":28.18577,"lat":-25.85891},"population":236580},{"name":"Cergy-Pontoise","cou_name_en":"France","coordinates":{"lon":2.07805,"lat":49.03894},"population":183430},{"name":"Cerro","cou_name_en":"Cuba","coordinates":{"lon":-82.3866,"lat":23.10809},"population":132351},{"name":"Chakwal","cou_name_en":"Pakistan","coordinates":{"lon":72.85394,"lat":32.93286},"population":101200},{"name":"Chakwama","cou_name_en":"Nigeria","coordinates":{"lon":9.66407,"lat":11.55965},"population":200000},{"name":"Chalco","cou_name_en":"Mexico","coordinates":{"lon":-98.89775,"lat":19.26174},"population":168720},{"name":"Chamart\u00edn","cou_name_en":"Spain","coordinates":{"lon":-3.6766,"lat":40.46206},"population":140000},{"name":"Chamber\u00ed","cou_name_en":"Spain","coordinates":{"lon":-3.70379,"lat":40.43404},"population":145934},{"name":"Chandannagar","cou_name_en":"India","coordinates":{"lon":88.36796,"lat":22.86225},"population":180623},{"name":"Chandler","cou_name_en":"United States","coordinates":{"lon":-111.84125,"lat":33.30616},"population":260828},{"name":"Chanduasi","cou_name_en":"India","coordinates":{"lon":78.78277,"lat":28.45178},"population":112635},{"name":"Chand\u012bgarh","cou_name_en":"India","coordinates":{"lon":76.7884,"lat":30.73629},"population":960787},{"name":"Changchun","cou_name_en":"China","coordinates":{"lon":125.32278,"lat":43.88},"population":4714996},{"name":"Changde","cou_name_en":"China","coordinates":{"lon":111.69844,"lat":29.03205},"population":1457419},{"name":"Changji","cou_name_en":"China","coordinates":{"lon":87.30461,"lat":44.00782},"population":198776},{"name":"Changle","cou_name_en":"China","coordinates":{"lon":118.8275,"lat":36.70583},"population":259161},{"name":"Changsha","cou_name_en":"China","coordinates":{"lon":112.97087,"lat":28.19874},"population":3093980},{"name":"Changshu","cou_name_en":"China","coordinates":{"lon":120.74221,"lat":31.64615},"population":1677050},{"name":"Changwon","cou_name_en":"Korea, Republic of","coordinates":{"lon":128.68111,"lat":35.22806},"population":1025702},{"name":"Changyi","cou_name_en":"China","coordinates":{"lon":119.39083,"lat":36.85361},"population":302072},{"name":"Changyuan","cou_name_en":"China","coordinates":{"lon":105.58827,"lat":29.40499},"population":186653},{"name":"Changzhi","cou_name_en":"China","coordinates":{"lon":113.10528,"lat":36.18389},"population":1214940},{"name":"Changzhi","cou_name_en":"China","coordinates":{"lon":111.73861,"lat":35.20889},"population":699514},{"name":"Changzhou","cou_name_en":"China","coordinates":{"lon":119.95401,"lat":31.77359},"population":3290918},{"name":"Chaohu","cou_name_en":"China","coordinates":{"lon":117.86667,"lat":31.6},"population":138463},{"name":"Chaoyang","cou_name_en":"China","coordinates":{"lon":120.45861,"lat":41.57028},"population":410005},{"name":"Chaozhou","cou_name_en":"China","coordinates":{"lon":116.62262,"lat":23.65396},"population":1750945},{"name":"Chapec\u00f3","cou_name_en":"Brazil","coordinates":{"lon":-52.61833,"lat":-27.09639},"population":160157},{"name":"Charallave","cou_name_en":"Venezuela, Bolivarian Rep. of","coordinates":{"lon":-66.85723,"lat":10.24247},"population":129182},{"name":"Charleroi","cou_name_en":"Belgium","coordinates":{"lon":4.44448,"lat":50.41136},"population":200132},{"name":"Charleston","cou_name_en":"United States","coordinates":{"lon":-79.93092,"lat":32.77657},"population":132609},{"name":"Charlotte","cou_name_en":"United States","coordinates":{"lon":-80.84313,"lat":35.22709},"population":874579},{"name":"Charlottenburg","cou_name_en":"Germany","coordinates":{"lon":13.28333,"lat":52.51667},"population":129359},{"name":"Chattanooga","cou_name_en":"United States","coordinates":{"lon":-85.30968,"lat":35.04563},"population":181099},{"name":"Chattogram","cou_name_en":"Bangladesh","coordinates":{"lon":91.83168,"lat":22.3384},"population":3920222},{"name":"Cheboksary","cou_name_en":"Russian Federation","coordinates":{"lon":47.25194,"lat":56.13222},"population":492331},{"name":"Chelmsford","cou_name_en":"United Kingdom","coordinates":{"lon":0.46958,"lat":51.73575},"population":111511},{"name":"Cheltenham","cou_name_en":"United Kingdom","coordinates":{"lon":-2.07972,"lat":51.90006},"population":116447},{"name":"Chelyabinsk","cou_name_en":"Russian Federation","coordinates":{"lon":61.42915,"lat":55.15402},"population":1202371},{"name":"Chemnitz","cou_name_en":"Germany","coordinates":{"lon":12.92922,"lat":50.8357},"population":247220},{"name":"Chengde","cou_name_en":"China","coordinates":{"lon":117.95883,"lat":40.9519},"population":449325},{"name":"Chengdu","cou_name_en":"China","coordinates":{"lon":104.06667,"lat":30.66667},"population":13568357},{"name":"Chenggu","cou_name_en":"China","coordinates":{"lon":107.32583,"lat":33.14917},"population":116375},{"name":"Chenghua","cou_name_en":"China","coordinates":{"lon":116.77007,"lat":23.46132},"population":152453},{"name":"Chengtangcun","cou_name_en":"China","coordinates":{"lon":117.19071,"lat":35.08357},"population":105456},{"name":"Chengzhong","cou_name_en":"China","coordinates":{"lon":113.55284,"lat":30.94454},"population":265886},{"name":"Chennai","cou_name_en":"India","coordinates":{"lon":80.27847,"lat":13.08784},"population":4681087},{"name":"Chenzhou","cou_name_en":"China","coordinates":{"lon":113.03333,"lat":25.8},